~Version ---------------------------------------------------
VERS.   2.0 : CWLS log ASCII Standard -VERSION 2.0
WRAP.    NO : One line per depth step
DLM . SPACE : Column Data Section Delimiter
~Well ------------------------------------------------------
STRT.0.1 in          78840.00000 : START DEPTH
STOP.0.1 in        1388160.00000 : STOP DEPTH
STEP.0.1 in             60.00000 : STEP
NULL.                    -999.25 : NULL VALUE
COMP.               STATOILHYDRO : COMPANY
WELL.                   15/9-F-4 : WELL
FLD .                      VOLVE : FIELD
LOC .                            : LOCATION
PROV.                            : PROVINCE
CNTY.                            : COUNTY
STAT.                            : STATE
CTRY.                            : COUNTRY
SRVC.    CROCKER DATA PROCESSING : SERVICE COMPANY
DATE. 2009-02-18 14:26:33.389000 : DATE
UWI .                            : UNIQUE WELL ID
API .                            : API NUMBER
~Curve Information -----------------------------------------
DEPTH.0.1 in       : 
DT   .us/ft        : 
DTS  .us/ft        : 
GR   .API          : 
NPHI .v/v_decimal  : 
RD   .UNKNOWN      : 
RHOB .g/cm3        : 
RS   .UNKNOWN      : 
RT   .ohm.m        : 
~Params ----------------------------------------------------
PROD   .                           PETROLOG : 
PROG   .               ['PETROLOG-TO-DLIS'] : 
RUN    .                                 [] : 
DESCENT.                                 [] : 
VERSION.                              10.00 : 
LINEAGE.         Python-converted from DLIS : 
ORFILE . WLC_PETRO_COMPUTED_INPUT_1(1).DLIS : 
~Other -----------------------------------------------------
~ASCII -----------------------------------------------------
# ...
 1139040.00000   58.67620  116.38080    8.97080    0.04710    9.82300    2.64090    9.97600    9.29690
 1139100.00000   59.33340  117.88570    8.91010    0.04870    9.40140    2.63540   10.28500   10.62270
 1139160.00000   60.55540  120.04570    9.51100    0.05150    9.47550    2.62210    9.93870   10.01470
 1139220.00000   60.71830  119.20110   10.12220    0.05330    9.54620    2.62310    9.04200    8.85720
 1139280.00000   59.78330  118.02400   10.76610    0.05520    9.47560    2.61640    9.03900    9.06530
 1139340.00000   59.21700  117.88350   10.32670    0.05460    9.23530    2.61980    8.85520    8.46330
 1139400.00000   58.41250  118.04210   10.04910    0.05310    9.12360    2.61880    9.40330    9.14410
 1139460.00000   58.23480  118.11990    9.31040    0.05200    9.01680    2.62450    8.97500    8.45220
 1139520.00000   60.12810  117.89400    9.17690    0.05080    8.67940    2.62090    9.38760    9.21280
 1139580.00000   59.65990  119.98530    8.92360    0.05120    8.55080    2.61190    9.28580    8.83400
 1139640.00000   59.62950  120.60860    9.06610    0.05020    8.38660    2.60100    8.41640    8.37680
 1139700.00000   61.21890  120.50360    8.66730    0.05580    8.20500    2.60510    8.73530    8.51390
 1139760.00000   60.95800  120.62600    9.18800    0.05780    8.11730    2.60800    7.67830    7.62500
 1139820.00000   61.58770  120.01930   10.30100    0.05890    7.91180    2.61210    7.49710    7.53420
 1139880.00000   60.64570  119.28950   10.30090    0.06180    7.78630    2.59560    7.38000    7.10350
 1139940.00000   61.37620  118.55130    9.82980    0.06600    7.48840    2.59250    6.94150    7.03700
 1140000.00000   61.99880  118.58760    8.68740    0.07310    7.22710    2.58760    6.64780    6.84700
 1140060.00000   62.00800  119.82740    8.80820    0.07070    7.08480    2.59060    6.14130    6.01700
 1140120.00000   62.72930  120.74910    9.33290    0.07300    6.83270    2.59360    6.15310    6.40330
 1140180.00000   62.68000  120.63580    9.92710    0.07120    6.86380    2.60140    6.03160    5.87030
 1140240.00000   62.42540  121.61190   10.63700    0.06920    6.72570    2.60520    5.88840    5.79510
 1140300.00000   62.04820  121.73200   10.58250    0.06680    6.55190    2.61020    6.25800    6.28070
 1140360.00000   62.08980  119.49190   10.29500    0.06710    6.47280    2.60100    6.34450    6.31490
 1140420.00000   62.45010  118.74400   10.28370    0.06580    6.52720    2.59710    6.37150    6.27250
 1140480.00000   62.01500  117.39920   10.38070    0.06400    6.53230    2.59490    6.49160    6.20060
 1140540.00000   61.28450  116.83780   10.30090    0.06950    6.53190    2.59970    6.86760    6.60650
 1140600.00000   60.46440  117.77010    8.97360    0.06670    6.50440    2.59830    7.13500    6.73910
 1140660.00000   60.47360  118.85960    7.74820    0.06790    6.53380    2.59180    6.89150    6.50110
 1140720.00000   61.02220  119.66950    7.40460    0.06490    6.46420    2.59220    6.75300    6.64560
 1140780.00000   61.37760  121.94730    9.69200    0.06720    6.37600    2.60070    6.50410    6.73090
 1140840.00000   63.76380  124.55690   12.95720    0.07040    6.57350    2.60060    6.06810    6.17240
 1140900.00000   64.27990  125.32980   14.30030    0.07050    6.40040    2.60430    5.79870    6.06330
 1140960.00000   63.88580  125.09180   14.23460    0.07240    6.42880    2.59780    5.47930    5.62660
 1141020.00000   63.13900  124.16850   13.08140    0.07090    6.29940    2.59880    5.53010    5.68180
 1141080.00000   62.42540  122.81390   12.96380    0.07680    6.20270    2.60020    5.59520    5.65990
 1141140.00000   61.77670  121.50610   11.52530    0.06970    6.06370    2.59760    6.07660    5.86050
 1141200.00000   60.65270  121.60960    9.87000    0.06650    5.96510    2.60530    6.39290    5.99730
 1141260.00000   59.51180  119.54330    9.14930    0.07190    5.85070    2.60260    6.65790    6.07040
 1141320.00000   58.71780  118.15700    8.88670    0.06730    5.70830    2.60180    6.44170    6.13320
 1141380.00000   60.01460  119.37860    9.33800    0.06700    5.55550    2.59280    6.19800    6.04240
 1141440.00000   61.66390  120.88360    9.59730    0.07250    5.52480    2.58640    5.65590    5.62520
 1141500.00000   63.57620  124.07490   10.42820    0.07520    5.29830    2.57370    5.04970    5.38180
 1141560.00000   65.88980  126.55220   11.98600    0.09090    5.14330    2.56250    4.35710    4.74580
 1141620.00000   66.64150  127.37040   13.28070    0.10010    4.94680    2.55320    4.07770    4.24590
 1141680.00000   64.68190  127.97480   13.01790    0.08820    5.10690    2.55090    4.09230    3.92370
 1141740.00000   63.19400  125.40530   11.36490    0.08980    4.86110    2.55680    4.90110    4.74420
 1141800.00000   59.86510  122.14830    9.61140    0.08420    4.98440    2.56740    4.75910    4.23940
 1141860.00000   59.77690  122.51470    9.20740    0.06950    4.59340    2.58500    5.08100    5.50760
 1141920.00000   61.77880  121.48120   10.69250    0.07180    4.70890    2.58170    4.87320    5.13570
 1141980.00000   63.53460  124.30300   12.11470    0.08660    4.68560    2.57570    4.58690    4.96490
 1142040.00000   65.25800  126.94050   13.66000    0.09310    4.69810    2.55130    4.11290    4.38150
 1142100.00000   66.42920  128.56410   13.35030    0.09370    4.72180    2.54840    3.86640    4.05570
 1142160.00000   65.06620  126.06410   12.71260    0.09140    4.58790    2.55040    3.88920    4.01940
 1142220.00000   62.74420  121.68970   11.42970    0.09540    4.58470    2.57520    4.47720    4.14050
 1142280.00000   60.95660  120.55420    9.32170    0.07320    4.55340    2.58960    4.95270    4.54850
 1142340.00000   60.41510  119.37110    8.58650    0.07510    4.28490    2.59020    5.19340    5.13570
 1142400.00000   60.34240  121.61190    8.49750    0.07790    4.31670    2.58690    4.94980    4.86060
 1142460.00000   61.58980  122.60460   11.05850    0.08300    4.27540    2.56880    4.55410    4.68220
 1142520.00000   63.87310  125.01020   13.73960    0.09310    4.26400    2.56900    4.03050    4.17560
 1142580.00000   67.37410  131.55589   15.10620    0.10630    4.14990    2.56060    3.56880    3.74990
 1142640.00000   67.89030  132.97701   14.59870    0.11730    3.99860    2.56600    3.38930    3.48450
 1142700.00000   67.64420  131.89740   14.07700    0.10320    3.91070    2.55250    3.20210    3.22830
 1142760.00000   66.92070  131.86040   13.58490    0.10870    3.76220    2.55450    3.36380    3.36340
 1142820.00000   64.90260  129.84689   14.38700    0.10780    3.70050    2.55150    3.42020    3.24640
 1142880.00000   63.99370  127.78140   14.24370    0.09980    3.57170    2.55850    3.50650    3.44270
 1142940.00000   64.29550  126.40180   14.72790    0.10390    3.56590    2.55450    3.66030    3.54280
 1143000.00000   63.37810  126.43880   13.76670    0.09740    3.47520    2.54510    3.55030    3.61380
 1143060.00000   64.07550  127.79120   11.76590    0.10550    3.37380    2.52610    3.49130    3.47170
 1143120.00000   64.58390  127.86220   10.30570    0.10680    3.45740    2.51450    3.26160    3.31690
 1143180.00000   65.35670  128.58299   10.50420    0.11190    3.46940    2.51590    3.06240    3.05560
 1143240.00000   66.79030  129.21609   12.39560    0.12150    3.45080    2.53050    3.19130    3.13330
 1143300.00000   66.01950  129.38150   13.41170    0.12290    3.44400    2.53600    3.19130    3.19520
 1143360.00000   65.24670  127.74590   13.08170    0.10860    3.38800    2.52900    3.25940    3.35770
 1143420.00000   63.36890  126.49100   12.17040    0.11320    3.39000    2.52820    3.20120    3.35010
 1143480.00000   63.18130  127.02590   11.40710    0.11290    3.64920    2.52500    3.12750    2.98360
 1143540.00000   64.39630  127.05460   10.94230    0.10970    3.51830    2.52530    3.23580    3.41250
 1143600.00000   66.15210  127.80630   10.48610    0.12100    3.60560    2.52800    3.28930    3.29080
 1143660.00000   66.66610  126.19410   10.78460    0.11420    3.66780    2.53430    3.33450    3.35520
