~Version ---------------------------------------------------
VERS.   2.0 : CWLS log ASCII Standard -VERSION 2.0
WRAP.    NO : One line per depth step
DLM . SPACE : Column Data Section Delimiter
~Well ------------------------------------------------------
STRT.0.1 in          78840.00000 : START DEPTH
STOP.0.1 in        1388160.00000 : STOP DEPTH
STEP.0.1 in             60.00000 : STEP
NULL.                    -999.25 : NULL VALUE
COMP.               STATOILHYDRO : COMPANY
WELL.                   15/9-F-4 : WELL
FLD .                      VOLVE : FIELD
LOC .                            : LOCATION
PROV.                            : PROVINCE
CNTY.                            : COUNTY
STAT.                            : STATE
CTRY.                            : COUNTRY
SRVC.    CROCKER DATA PROCESSING : SERVICE COMPANY
DATE. 2009-02-18 14:26:33.389000 : DATE
UWI .                            : UNIQUE WELL ID
API .                            : API NUMBER
~Curve Information -----------------------------------------
DEPTH.0.1 in       : 
DT   .us/ft        : 
DTS  .us/ft        : 
GR   .API          : 
NPHI .v/v_decimal  : 
RD   .UNKNOWN      : 
RHOB .g/cm3        : 
RS   .UNKNOWN      : 
RT   .ohm.m        : 
~Params ----------------------------------------------------
PROD   .                           PETROLOG : 
PROG   .               ['PETROLOG-TO-DLIS'] : 
RUN    .                                 [] : 
DESCENT.                                 [] : 
VERSION.                              10.00 : 
LINEAGE.         Python-converted from DLIS : 
ORFILE . WLC_PETRO_COMPUTED_INPUT_1(1).DLIS : 
~Other -----------------------------------------------------
~ASCII -----------------------------------------------------
# ...
 1157760.00000   75.67640  153.22540   21.87320    0.15270    2.27340    2.51980    1.85000    1.87490
 1157820.00000   74.72520  152.32410   21.64560    0.13880    2.35120    2.52130    1.82360    1.76030
 1157880.00000   73.32760  146.26559   20.20790    0.13270    2.06920    2.52530    2.10650    2.16260
 1157940.00000   70.31100  139.62090   16.35880    0.13870    2.01740    2.49360    2.22550    2.26240
 1158000.00000   71.00210  136.89281   14.08250    0.13710    2.01640    2.47850    2.13450    2.18140
 1158060.00000   73.60330  140.06590   13.57010    0.14240    1.98920    2.47390    1.92550    1.96590
 1158120.00000   76.00640  142.70340   14.36880    0.14540    2.01210    2.47300    1.86230    1.85980
 1158180.00000   76.47180  144.72360   15.11050    0.15250    1.99530    2.48000    1.88580    1.89490
 1158240.00000   75.09470  144.46750   15.42860    0.15390    1.96400    2.48150    1.92130    1.93690
 1158300.00000   74.79850  142.83189   14.51870    0.16230    1.93210    2.47740    1.91690    1.95270
 1158360.00000   74.08560  140.75720   13.80370    0.14520    1.93510    2.46840    1.87990    1.92320
 1158420.00000   74.28240  139.35201   13.03790    0.15890    1.94130    2.46270    1.83200    1.82020
 1158480.00000   74.15900  139.80150   13.25370    0.16920    1.97100    2.47200    1.85970    1.79860
 1158540.00000   73.78170  141.23390   13.09650    0.16170    1.98040    2.48410    1.93520    1.88170
 1158600.00000   73.60120  141.81340   13.89890    0.14170    2.00940    2.49250    2.01670    2.01010
 1158660.00000   73.32200  141.32910   14.05760    0.13880    2.03710    2.49730    2.07420    2.02420
 1158720.00000   72.68170  139.83400   13.65270    0.14370    2.02960    2.49120    2.11200    2.15090
 1158780.00000   72.29740  138.28819   12.38860    0.15170    2.05510    2.48470    2.08570    2.08770
 1158840.00000   73.09280  138.68491   12.93620    0.15050    2.10450    2.48450    2.05700    2.05770
 1158900.00000   73.75850  140.61140   14.30870    0.13480    2.12610    2.49830    2.04760    2.00530
 1158960.00000   74.90570  142.98289   15.27150    0.14110    2.17390    2.51020    2.12190    2.05710
 1159020.00000   74.10040  143.25571   15.82860    0.14590    2.13140    2.52450    2.24400    2.23560
 1159080.00000   72.43560  142.49640   15.22080    0.12940    2.11070    2.50780    2.22620    2.28560
 1159140.00000   72.09220  139.30740   15.26950    0.14720    2.09570    2.49130    2.18290    2.22700
 1159200.00000   72.84670  138.80730   14.14260    0.14070    2.14490    2.46290    2.01440    2.06030
 1159260.00000   73.57790  139.84610   14.20460    0.13880    2.14310    2.46170    1.97980    1.96030
 1159320.00000   75.21880  142.20180   15.02220    0.14180    2.19160    2.47590    1.99390    1.95970
 1159380.00000   76.21870  143.79210   16.37740    0.14560    2.17930    2.49170    2.09500    2.06810
 1159440.00000   75.56930  144.04590   16.96470    0.14270    2.14560    2.49770    2.17200    2.14400
 1159500.00000   73.99470  143.17560   16.97480    0.13520    2.17450    2.49210    2.17190    2.22720
 1159560.00000   73.79090  142.49040   15.89420    0.13450    2.18590    2.49090    2.13340    2.13000
 1159620.00000   74.81620  142.50850   16.61230    0.14180    2.19500    2.49320    2.09530    2.10220
 1159680.00000   75.39860  143.11520   17.78360    0.13320    2.23010    2.49350    2.06450    2.07290
 1159740.00000   75.75120  143.50121   18.13610    0.14440    2.27730    2.49270    2.15150    2.13230
 1159800.00000   75.44660  142.85001   17.82250    0.14110    2.29950    2.49770    2.25380    2.22210
 1159860.00000   73.89520  141.07300   16.29230    0.13390    2.33130    2.50490    2.35940    2.29970
 1159920.00000   71.86870  138.19830   15.00270    0.13200    2.36580    2.51460    2.53480    2.47010
 1159980.00000   70.59030  136.21359   13.31770    0.13020    2.36790    2.50840    2.55110    2.54460
 1160040.00000   70.97600  136.01041   12.91570    0.13620    2.35690    2.50090    2.56100    2.55680
 1160100.00000   71.27920  135.89020   13.91800    0.13640    2.41950    2.49230    2.45200    2.39790
 1160160.00000   71.73190  138.18320   15.30170    0.13120    2.38830    2.49570    2.37510    2.38390
 1160220.00000   73.10900  139.04520   15.65920    0.13330    2.36330    2.49660    2.36880    2.37750
 1160280.00000   73.52860  140.08180   15.34580    0.14030    2.36960    2.49650    2.27920    2.27310
 1160340.00000   74.81620  140.51320   14.98020    0.14520    2.37520    2.49670    2.18580    2.18710
 1160400.00000   75.47270  142.15871   15.87070    0.13600    2.30560    2.50600    2.21160    2.19450
 1160460.00000   76.02200  144.58310   17.36980    0.13310    2.29190    2.51320    2.18700    2.18920
 1160520.00000   75.96410  144.30890   17.04310    0.14220    2.26800    2.51060    2.20670    2.22330
 1160580.00000   75.48820  142.64830   15.74340    0.13610    2.25020    2.50610    2.19980    2.17990
 1160640.00000   74.97130  142.31509   15.13530    0.13600    2.24640    2.50040    2.19990    2.15320
 1160700.00000   74.86550  143.08040   17.36450    0.13520    2.24220    2.50410    2.21140    2.17720
 1160760.00000   75.72720  144.33760   19.34640    0.13240    2.25660    2.50830    2.21380    2.16330
 1160820.00000   76.22640  144.98660   19.76240    0.12820    2.27140    2.50800    2.24880    2.22730
 1160880.00000   75.04390  143.94020   17.43800    0.13610    2.23980    2.50250    2.25510    2.31190
 1160940.00000   73.42070  142.36571   15.39520    0.14280    2.23720    2.48740    2.22670    2.24390
 1161000.00000   73.43760  140.50340   14.04730    0.13950    2.25270    2.49260    2.17930    2.19960
 1161060.00000   73.90510  140.09010   14.93420    0.14900    2.27420    2.48600    2.11320    2.08790
 1161120.00000   73.97850  139.76520   14.09370    0.15560    2.28710    2.49320    2.10800    2.10290
 1161180.00000   73.40380  139.12160   14.04080    0.14360    2.27950    2.48820    2.13990    2.11380
 1161240.00000   72.18040  136.35190   13.19250    0.12860    2.28980    2.49070    2.24280    2.22120
 1161300.00000   70.35120  133.98030   13.70250    0.14350    2.30310    2.49140    2.37080    2.36390
 1161360.00000   69.35060  133.44321   13.05250    0.14260    2.33770    2.50260    2.41220    2.41410
 1161420.00000   69.00650  132.41570   12.36110    0.13800    2.39090    2.51260    2.40480    2.37670
 1161480.00000   69.18700  132.77679   12.17310    0.13110    2.37620    2.51640    2.45330    2.41560
 1161540.00000   69.56500  134.07851   12.48760    0.13070    2.37020    2.50690    2.47100    2.48960
 1161600.00000   70.61560  135.95970   12.88860    0.14040    2.40240    2.49610    2.39630    2.43480
 1161660.00000   71.88700  137.56821   13.69470    0.13880    2.53260    2.49780    2.22060    2.15130
 1161720.00000   72.35380  138.27010   13.96260    0.13010    2.53980    2.49490    2.24890    2.07630
 1161780.00000   71.70510  137.20560   13.22490    0.11900    2.39920    2.50250    2.35920    2.34120
 1161840.00000   70.26030  135.73840   13.03660    0.12350    2.35280    2.50370    2.43450    2.47500
 1161900.00000   68.93320  135.49290   13.87770    0.12510    2.36710    2.50990    2.45630    2.42040
 1161960.00000   70.37870  136.09120   17.09740    0.12650    2.38830    2.52180    2.38210    2.42790
 1162020.00000   72.84740  137.88631   18.55070    0.12690    2.49340    2.53230    2.30420    2.25590
 1162080.00000   73.78170  141.57919   19.44050    0.12280    2.51680    2.54740    2.37380    2.21030
 1162140.00000   73.37910  144.67081   18.42930    0.12350    2.40170    2.53990    2.55550    2.62810
 1162200.00000   72.18880  143.71880   17.02820    0.12960    2.40980    2.51130    2.48830    2.49890
 1162260.00000   70.86880  140.29030   15.55550    0.13290    2.38880    2.48810    2.37280    2.40050
 1162320.00000   70.99290  138.11290   15.02230    0.12930    2.41590    2.48770    2.26630    2.28980
 1162380.00000   71.87010  138.93950   15.09790    0.13620    2.44130    2.50620    2.28880    2.25830
