~Version ---------------------------------------------------
VERS.   2.0 : CWLS log ASCII Standard -VERSION 2.0
WRAP.    NO : One line per depth step
DLM . SPACE : Column Data Section Delimiter
~Well ------------------------------------------------------
STRT.0.1 in          78840.00000 : START DEPTH
STOP.0.1 in        1388160.00000 : STOP DEPTH
STEP.0.1 in             60.00000 : STEP
NULL.                    -999.25 : NULL VALUE
COMP.               STATOILHYDRO : COMPANY
WELL.                   15/9-F-4 : WELL
FLD .                      VOLVE : FIELD
LOC .                            : LOCATION
PROV.                            : PROVINCE
CNTY.                            : COUNTY
STAT.                            : STATE
CTRY.                            : COUNTRY
SRVC.    CROCKER DATA PROCESSING : SERVICE COMPANY
DATE. 2009-02-18 14:26:33.389000 : DATE
UWI .                            : UNIQUE WELL ID
API .                            : API NUMBER
~Curve Information -----------------------------------------
DEPTH.0.1 in       : 
DT   .us/ft        : 
DTS  .us/ft        : 
GR   .API          : 
NPHI .v/v_decimal  : 
RD   .UNKNOWN      : 
RHOB .g/cm3        : 
RS   .UNKNOWN      : 
RT   .ohm.m        : 
~Params ----------------------------------------------------
PROD   .                           PETROLOG : 
PROG   .               ['PETROLOG-TO-DLIS'] : 
RUN    .                                 [] : 
DESCENT.                                 [] : 
VERSION.                              10.00 : 
LINEAGE.         Python-converted from DLIS : 
ORFILE . WLC_PETRO_COMPUTED_INPUT_1(1).DLIS : 
~Other -----------------------------------------------------
~ASCII -----------------------------------------------------
# ...
 1256040.00000   82.04320  159.90491   97.51680    0.21900    1.97300    2.50810    1.82840    1.96950
 1256100.00000   80.82260  164.86470   97.02990    0.21070    1.93480    2.50860    1.75450    1.90470
 1256160.00000   81.58550  164.20290   96.83420    0.22390    1.96320    2.50320    1.69590    1.82260
 1256220.00000   82.73560  161.40829   97.17080    0.22400    1.95170    2.51510    1.66080    1.73190
 1256280.00000   83.88080  159.77341   97.70990    0.21680    1.90480    2.52560    1.68430    1.72720
 1256340.00000   82.14330  159.00130   94.66350    0.19860    1.88280    2.53550    1.67660    1.67130
 1256400.00000   82.67710  159.40469   95.14740    0.23340    1.80890    2.52360    1.70610    1.74100
 1256460.00000   83.17630  158.16341   93.37440    0.21270    1.78280    2.51180    1.67710    1.70970
 1256520.00000   82.58610  156.67281   95.19570    0.22290    1.77950    2.50210    1.66020    1.70230
 1256580.00000   82.26530  158.36740   95.69900    0.22240    1.76820    2.50090    1.65080    1.68640
 1256640.00000   81.95570  158.65070   94.13790    0.21670    1.77670    2.50960    1.64170    1.66510
 1256700.00000   83.71930  161.05090   94.10210    0.21780    1.72650    2.51920    1.63860    1.69490
 1256760.00000   84.76920  161.54660   96.09830    0.22800    1.72430    2.51790    1.64240    1.69960
 1256820.00000   84.65220  159.51500  101.48060    0.24090    1.71950    2.49850    1.65140    1.68370
 1256880.00000   82.72500  163.71741  102.69030    0.22940    1.70180    2.49100    1.65510    1.68990
 1256940.00000   82.48030  163.41570  100.40790    0.22780    1.68460    2.49080    1.67190    1.75490
 1257000.00000   83.89200  164.76360   96.72150    0.23260    1.70290    2.49520    1.67190    1.78990
 1257060.00000   85.40100  164.95219   93.44330    0.24990    1.67770    2.49720    1.67240    1.80240
 1257120.00000   86.19710  164.82001   92.94860    0.24700    1.68420    2.49270    1.62580    1.78070
 1257180.00000   87.38740  164.55530   91.32250    0.25460    1.70120    2.49040    1.56830    1.72080
 1257240.00000   88.53470  165.18210   89.68480    0.25090    1.72360    2.48160    1.52620    1.64640
 1257300.00000   88.22300  166.68550   90.53960    0.24430    1.71260    2.48610    1.51980    1.63630
 1257360.00000   88.28930  167.64200   91.26980    0.25180    1.69800    2.48990    1.49520    1.59640
 1257420.00000   88.91260  168.17310   93.89570    0.24390    1.62850    2.50050    1.46670    1.59620
 1257480.00000   88.95280  171.74060   91.49780    0.25990    1.70180    2.51190    1.41580    1.46300
 1257540.00000   88.18990  172.39720   91.24990    0.25400    1.80550    2.51130    1.41200    1.33290
 1257600.00000   87.58270  170.27870   91.49060    0.24950    1.71560    2.52540    1.45160    1.41050
 1257660.00000   87.31270  169.15530   92.96970    0.24480    1.55260    2.51000    1.51530    1.60850
 1257720.00000   87.41840  170.48421   96.00100    0.23770    1.57260    2.51640    1.51710    1.58300
 1257780.00000   86.90230  172.57471   97.55980    0.26700    1.64920    2.49500    1.49010    1.45770
 1257840.00000   87.44450  173.29700   99.79760    0.28020    1.69520    2.48930    1.45550    1.40130
 1257900.00000   88.75750  175.42450  103.25420    0.25640    1.60930    2.48540    1.45240    1.50320
 1257960.00000   90.10290  176.70580  105.27070    0.26560    1.63090    2.49270    1.43510    1.49970
 1258020.00000   90.74180  176.59821  104.89280    0.26480    1.67760    2.50160    1.43670    1.51610
 1258080.00000   90.57040  179.62030  102.53660    0.25450    1.66820    2.50510    1.48060    1.58450
 1258140.00000   90.54360  183.95200  100.50790    0.23880    1.68270    2.51390    1.49750    1.61440
 1258200.00000   88.87950  185.04700  102.37040    0.25060    1.78100    2.51590    1.51230    1.58020
 1258260.00000   88.51780  183.55710  103.19100    0.25610    1.75160    2.51720    1.56700    1.73540
 1258320.00000   87.45940  178.65469  103.74810    0.24450    1.57400    2.50980    1.65990    1.95860
 1258380.00000   87.35500  171.48950  105.84600    0.25100    1.61850    2.49910    1.64400    1.89340
 1258440.00000   88.87100  170.97870  108.13750    0.26500    1.61600    2.48290    1.58150    1.91700
 1258500.00000   88.39510  170.53450  113.25340    0.26110    1.66400    2.47260    1.50300    1.74960
 1258560.00000   88.37180  169.71660  113.33470    0.25700    1.85520    2.47510    1.40240    1.40210
 1258620.00000   89.94780  169.97501  114.58240    0.27370    1.78420    2.48750    1.43490    1.46480
 1258680.00000   91.34890  173.95799  109.68670    0.27950    1.69430    2.49500    1.44830    1.55380
 1258740.00000   90.79110  177.76280  105.75500    0.27720    1.60850    2.50530    1.46210    1.58900
 1258800.00000   90.15860  178.30450  100.79910    0.24980    1.58060    2.49210    1.47580    1.55150
 1258860.00000   89.15030  176.01151  102.69370    0.25860    1.67170    2.48880    1.37870    1.38950
 1258920.00000   89.38090  175.65190  102.11740    0.25300    1.63810    2.47820    1.37980    1.44010
 1258980.00000   90.38990  176.39980  101.29120    0.25220    1.64540    2.49070    1.37610    1.39370
 1259040.00000   91.07880  176.88530   98.11310    0.25980    1.60070    2.49310    1.38090    1.40850
 1259100.00000   91.11900  175.98421   98.89020    0.27200    1.53340    2.48530    1.44480    1.49840
 1259160.00000   90.23270  177.96390  100.54640    0.26840    1.53360    2.47190    1.46930    1.51030
 1259220.00000   89.49510  178.71420  101.10920    0.27420    1.55420    2.46230    1.46500    1.48500
 1259280.00000   89.82370  178.60640  101.18630    0.26240    1.53390    2.47340    1.45540    1.47320
 1259340.00000   90.54580  180.05690  100.44150    0.26620    1.58860    2.47420    1.43080    1.43010
 1259400.00000   91.04570  180.74190   97.85560    0.26020    1.57170    2.47080    1.43760    1.44590
 1259460.00000   91.07880  180.75020   97.46800    0.26950    1.59460    2.46920    1.43370    1.44220
 1259520.00000   91.43990  181.12939   96.27480    0.25380    1.57320    2.47600    1.43460    1.45790
 1259580.00000   91.55410  181.17540   96.60630    0.25580    1.53000    2.49410    1.41500    1.51540
 1259640.00000   91.11130  179.64079   97.86300    0.25630    1.54040    2.48810    1.37310    1.46000
 1259700.00000   90.68400  177.48421   98.37010    0.28710    1.75260    2.49510    1.29670    1.28630
 1259760.00000   89.97110  176.61121  100.58160    0.26040    1.63920    2.49320    1.32760    1.39320
 1259820.00000   89.89630  175.84930   98.85080    0.25340    1.62610    2.50610    1.36570    1.50840
 1259880.00000   88.95280  173.18790   98.14280    0.25680    1.64670    2.51640    1.43930    1.54210
 1259940.00000   87.86900  172.27220   98.71140    0.23190    1.68800    2.52390    1.49580    1.61870
 1260000.00000   85.27410  171.63330   96.10450    0.23850    1.70980    2.54850    1.59940    1.68900
 1260060.00000   80.97560  167.03259   91.78780    0.20770    1.83830    2.55930    1.69990    1.70160
 1260120.00000   78.34330  161.98450   88.71980    0.20860    1.73260    2.56690    1.91230    2.04800
 1260180.00000   78.04150  158.80341   89.21160    0.23720    1.67190    2.53540    2.03300    2.26410
 1260240.00000   79.99540  159.98981   91.63600    0.23220    1.77210    2.49740    1.99840    2.19790
 1260300.00000   82.59530  161.95050   93.74880    0.21990    1.89030    2.47620    1.90800    2.10090
 1260360.00000   83.80110  161.84200   94.08940    0.24660    1.96090    2.47540    1.85160    1.96400
 1260420.00000   84.39130  163.89841   93.59760    0.21850    1.94440    2.48910    1.76340    1.88300
 1260480.00000   84.02110  164.51190   91.47550    0.22250    1.87920    2.49650    1.73840    1.85190
 1260540.00000   83.35820  163.23740   94.45300    0.23040    1.88070    2.50330    1.69840    1.77010
 1260600.00000   84.70440  162.67599   95.67000    0.24350    1.91310    2.48920    1.68430    1.69610
 1260660.00000   86.36150  162.76221   97.28950    0.23440    1.84710    2.47830    1.68430    1.73410
