~Version ---------------------------------------------------
VERS.   2.0 : CWLS log ASCII Standard -VERSION 2.0
WRAP.    NO : One line per depth step
DLM . SPACE : Column Data Section Delimiter
~Well ------------------------------------------------------
STRT.0.1 in          78840.00000 : START DEPTH
STOP.0.1 in        1388160.00000 : STOP DEPTH
STEP.0.1 in             60.00000 : STEP
NULL.                    -999.25 : NULL VALUE
COMP.               STATOILHYDRO : COMPANY
WELL.                   15/9-F-4 : WELL
FLD .                      VOLVE : FIELD
LOC .                            : LOCATION
PROV.                            : PROVINCE
CNTY.                            : COUNTY
STAT.                            : STATE
CTRY.                            : COUNTRY
SRVC.    CROCKER DATA PROCESSING : SERVICE COMPANY
DATE. 2009-02-18 14:26:33.389000 : DATE
UWI .                            : UNIQUE WELL ID
API .                            : API NUMBER
~Curve Information -----------------------------------------
DEPTH.0.1 in       : 
DT   .us/ft        : 
DTS  .us/ft        : 
GR   .API          : 
NPHI .v/v_decimal  : 
RD   .UNKNOWN      : 
RHOB .g/cm3        : 
RS   .UNKNOWN      : 
RT   .ohm.m        : 
~Params ----------------------------------------------------
PROD   .                           PETROLOG : 
PROG   .               ['PETROLOG-TO-DLIS'] : 
RUN    .                                 [] : 
DESCENT.                                 [] : 
VERSION.                              10.00 : 
LINEAGE.         Python-converted from DLIS : 
ORFILE . WLC_PETRO_COMPUTED_INPUT_1(1).DLIS : 
~Other -----------------------------------------------------
~ASCII -----------------------------------------------------
# ...
 1373040.00000 -999.25000 -999.25000   72.10500    0.14880    1.31900    2.45250    1.30130    1.53140
 1373100.00000 -999.25000 -999.25000   72.40350    0.14920    1.36110    2.45600    1.23830    1.43690
 1373160.00000 -999.25000 -999.25000   73.27260    0.15870    1.35020    2.45820    1.22070    1.31580
 1373220.00000 -999.25000 -999.25000   74.90820    0.15510    1.34160    2.45090    1.25840    1.20030
 1373280.00000 -999.25000 -999.25000   71.82910    0.16250    1.34780    2.45150    1.21150    1.20960
 1373340.00000 -999.25000 -999.25000   69.85440    0.15690    1.28370    2.45270    1.19960    1.25140
 1373400.00000 -999.25000 -999.25000   68.49760    0.15500    1.30000    2.45760    1.20710    1.22120
 1373460.00000 -999.25000 -999.25000   72.17490    0.16060    1.31470    2.46130    1.21840    1.19390
 1373520.00000 -999.25000 -999.25000   73.46760    0.15350    1.32610    2.47120    1.22220    1.15570
 1373580.00000 -999.25000 -999.25000   72.54500    0.15860    1.34260    2.49660    1.27770    1.18270
 1373640.00000 -999.25000 -999.25000   71.32780    0.14790    1.33290    2.51620    1.34130    1.23180
 1373700.00000 -999.25000 -999.25000   69.66970    0.16670    1.33240    2.52240    1.37130    1.31440
 1373760.00000 -999.25000 -999.25000   68.40910    0.15710    1.37870    2.49810    1.27100    1.26900
 1373820.00000 -999.25000 -999.25000   66.35880    0.15300    1.41990    2.47790    1.28850    1.25710
 1373880.00000 -999.25000 -999.25000   67.23430    0.16430    1.42540    2.47660    1.31190    1.29770
 1373940.00000 -999.25000 -999.25000   67.84390    0.16290    1.43410    2.48470    1.37180    1.38430
 1374000.00000 -999.25000 -999.25000   68.77190    0.15680    1.59220    2.48910    1.44650    1.46210
 1374060.00000 -999.25000 -999.25000   68.62220    0.15390    1.67050    2.49070    1.53890    1.55940
 1374120.00000 -999.25000 -999.25000   69.86040    0.15020    1.73160    2.50660    1.62680    1.62270
 1374180.00000 -999.25000 -999.25000   69.93570    0.14280    1.73760    2.52790    1.84180    1.79910
 1374240.00000 -999.25000 -999.25000   69.09050    0.14450    1.71500    2.56230    1.94680    2.01500
 1374300.00000 -999.25000 -999.25000   67.83580    0.13280    1.72180    2.57640    1.97420    2.11270
 1374360.00000 -999.25000 -999.25000   66.46640    0.13310    1.70490    2.59580    2.08290    2.23050
 1374420.00000 -999.25000 -999.25000   65.29850    0.14910    1.77980    2.59760    2.29630    2.49940
 1374480.00000 -999.25000 -999.25000   69.45450    0.15380    1.94530    2.60190    2.41720    2.53470
 1374540.00000 -999.25000 -999.25000   73.50370    0.16470    2.01680    2.60470    2.38230    2.86240
 1374600.00000 -999.25000 -999.25000   77.27790    0.16750    2.09170    2.61780    2.53590    3.01410
 1374660.00000 -999.25000 -999.25000   74.51030    0.18030    1.97290    2.63850    2.59580    4.08600
 1374720.00000 -999.25000 -999.25000   71.99910    0.16770    2.14700    2.63910    2.49970    2.72430
 1374780.00000 -999.25000 -999.25000   68.92460    0.16500    2.11650    2.62720    2.59610    2.58220
 1374840.00000 -999.25000 -999.25000   64.82230    0.16230    2.04220    2.59410    3.02560    2.87810
 1374900.00000 -999.25000 -999.25000   62.30940    0.15360    1.94500    2.56270    3.45540    3.66290
 1374960.00000 -999.25000 -999.25000   58.58350    0.15510    1.97420    2.52640    3.71570    4.53250
 1375020.00000 -999.25000 -999.25000   58.56260    0.14570    2.28340    2.50630    3.15140    3.50530
 1375080.00000 -999.25000 -999.25000   58.78890    0.15230    2.26230    2.49770    2.44250    2.74640
 1375140.00000 -999.25000 -999.25000   60.96670    0.14360    2.13680    2.48880    1.98400    2.40250
 1375200.00000 -999.25000 -999.25000   60.92600    0.14270    1.86780    2.47630    1.61440    1.70840
 1375260.00000 -999.25000 -999.25000   59.94190    0.15040    1.93990    2.46440    1.57350    1.37340
 1375320.00000 -999.25000 -999.25000   60.18810    0.14420    1.98880    2.46930    1.38310    1.45020
 1375380.00000 -999.25000 -999.25000   58.98490    0.13620    1.79160    2.47620    1.34950    1.40820
 1375440.00000 -999.25000 -999.25000   58.16660    0.14040    1.74130    2.50630    1.43740    1.44530
 1375500.00000 -999.25000 -999.25000   56.73990    0.12870    1.68230    2.51390    1.45320    1.45170
 1375560.00000 -999.25000 -999.25000   56.33970    0.13680    1.70210    2.51640    1.42570    1.35190
 1375620.00000 -999.25000 -999.25000   55.92880    0.13490    1.72970    2.49510    1.47180    1.45740
 1375680.00000 -999.25000 -999.25000   55.51080    0.13260    1.67410    2.48970    1.55310    1.50540
 1375740.00000 -999.25000 -999.25000   55.27100    0.13330    1.73790    2.49720    1.55070    1.63180
 1375800.00000 -999.25000 -999.25000   54.43720    0.13820    1.73570    2.50140    1.61160    1.77120
 1375860.00000 -999.25000 -999.25000   53.12100    0.12700    1.86830    2.52770    1.59410    1.72880
 1375920.00000 -999.25000 -999.25000   53.56700    0.13410    1.86770    2.52910    1.61060    1.71000
 1375980.00000 -999.25000 -999.25000   54.17180    0.13060    1.82770    2.53400    1.64950    1.76650
 1376040.00000 -999.25000 -999.25000   54.45070 -999.25000    1.82650    2.52550    1.71730    1.74080
 1376100.00000 -999.25000 -999.25000   54.61790 -999.25000    1.87970    2.53420    1.80290    1.84000
 1376160.00000 -999.25000 -999.25000   53.77500 -999.25000    1.93780    2.56330    2.25380    2.25790
 1376220.00000 -999.25000 -999.25000   53.21160 -999.25000    2.08680    2.58530    2.55460    2.24100
 1376280.00000 -999.25000 -999.25000   51.99780 -999.25000    2.02650    2.59910    2.77360    2.35160
 1376340.00000 -999.25000 -999.25000   53.77670 -999.25000    1.96150    2.59340    2.84630    2.76100
 1376400.00000 -999.25000 -999.25000   54.77940 -999.25000    1.97730    2.57490    2.79460    3.05060
 1376460.00000 -999.25000 -999.25000   57.94610 -999.25000    2.03250    2.55450    2.56530    2.85090
 1376520.00000 -999.25000 -999.25000   60.36460 -999.25000 -999.25000    2.53140 -999.25000 -999.25000
 1376580.00000 -999.25000 -999.25000   64.15710 -999.25000 -999.25000    2.51490 -999.25000 -999.25000
 1376640.00000 -999.25000 -999.25000   68.23840 -999.25000 -999.25000    2.50670 -999.25000 -999.25000
 1376700.00000 -999.25000 -999.25000   72.07280 -999.25000 -999.25000    2.50720 -999.25000 -999.25000
 1376760.00000 -999.25000 -999.25000   75.48020 -999.25000 -999.25000    2.50990 -999.25000 -999.25000
 1376820.00000 -999.25000 -999.25000   73.84510 -999.25000 -999.25000    2.50830 -999.25000 -999.25000
 1376880.00000 -999.25000 -999.25000   71.36720 -999.25000 -999.25000    2.50440 -999.25000 -999.25000
 1376940.00000 -999.25000 -999.25000   66.10670 -999.25000 -999.25000    2.49830 -999.25000 -999.25000
 1377000.00000 -999.25000 -999.25000   64.20630 -999.25000 -999.25000    2.48590 -999.25000 -999.25000
 1377060.00000 -999.25000 -999.25000   62.18830 -999.25000 -999.25000    2.48160 -999.25000 -999.25000
 1377120.00000 -999.25000 -999.25000   62.73990 -999.25000 -999.25000 -999.25000 -999.25000 -999.25000
 1377180.00000 -999.25000 -999.25000   63.24050 -999.25000 -999.25000 -999.25000 -999.25000 -999.25000
 1377240.00000 -999.25000 -999.25000   63.01780 -999.25000 -999.25000 -999.25000 -999.25000 -999.25000
 1377300.00000 -999.25000 -999.25000   63.83470 -999.25000 -999.25000 -999.25000 -999.25000 -999.25000
 1377360.00000 -999.25000 -999.25000   61.26340 -999.25000 -999.25000 -999.25000 -999.25000 -999.25000
 1377420.00000 -999.25000 -999.25000   62.43770 -999.25000 -999.25000 -999.25000 -999.25000 -999.25000
 1377480.00000 -999.25000 -999.25000   63.00200 -999.25000 -999.25000 -999.25000 -999.25000 -999.25000
 1377540.00000 -999.25000 -999.25000   66.27790 -999.25000 -999.25000 -999.25000 -999.25000 -999.25000
 1377600.00000 -999.25000 -999.25000   67.40700 -999.25000 -999.25000 -999.25000 -999.25000 -999.25000
 1377660.00000 -999.25000 -999.25000    1.00000 -999.25000 -999.25000 -999.25000 -999.25000 -999.25000
