~Version ---------------------------------------------------
VERS.   2.0 : CWLS log ASCII Standard -VERSION 2.0
WRAP.    NO : One line per depth step
DLM . SPACE : Column Data Section Delimiter
~Well ------------------------------------------------------
STRT.0.1 in          78840.00000 : START DEPTH
STOP.0.1 in        1388160.00000 : STOP DEPTH
STEP.0.1 in             60.00000 : STEP
NULL.                    -999.25 : NULL VALUE
COMP.               STATOILHYDRO : COMPANY
WELL.                   15/9-F-4 : WELL
FLD .                      VOLVE : FIELD
LOC .                            : LOCATION
PROV.                            : PROVINCE
CNTY.                            : COUNTY
STAT.                            : STATE
CTRY.                            : COUNTRY
SRVC.    CROCKER DATA PROCESSING : SERVICE COMPANY
DATE. 2009-02-18 14:26:33.389000 : DATE
UWI .                            : UNIQUE WELL ID
API .                            : API NUMBER
~Curve Information -----------------------------------------
DEPTH.0.1 in       : 
DT   .us/ft        : 
DTS  .us/ft        : 
GR   .API          : 
NPHI .v/v_decimal  : 
RD   .UNKNOWN      : 
RHOB .g/cm3        : 
RS   .UNKNOWN      : 
RT   .ohm.m        : 
~Params ----------------------------------------------------
PROD   .                           PETROLOG : 
PROG   .               ['PETROLOG-TO-DLIS'] : 
RUN    .                                 [] : 
DESCENT.                                 [] : 
VERSION.                              10.00 : 
LINEAGE.         Python-converted from DLIS : 
ORFILE . WLC_PETRO_COMPUTED_INPUT_1(1).DLIS : 
~Other -----------------------------------------------------
~ASCII -----------------------------------------------------
# ...
 1293480.00000   89.53630  162.94730   30.15790    0.24030   16.05870    2.13230   16.72160   21.91040
 1293540.00000   91.81890  161.93640   29.27910    0.22710   14.76350    2.12990   14.85370   19.83000
 1293600.00000   91.92470  161.80640   29.05040    0.23590   12.92440    2.12620   14.72430   17.66880
 1293660.00000   89.48530  161.63420   29.97450    0.22760   11.22470    2.13670   15.97100   15.67930
 1293720.00000   84.25100  155.71919   32.93200    0.22400   10.03520    2.20240   19.78780   15.93840
 1293780.00000   83.02820  150.15800   37.76650    0.22690    8.77150    2.27410   26.53180   20.18960
 1293840.00000   81.69910  148.45990   40.53480    0.21280   10.51070    2.37670   33.82860   16.51180
 1293900.00000   80.21330  147.22800   42.12770    0.19720   16.20410    2.39980   13.30200    9.33880
 1293960.00000   77.64370  147.13831   43.70990    0.19530   14.85920    2.43580    7.97680    7.15550
 1294020.00000   74.55240  146.28680   44.67830    0.20040   18.79730    2.46990    4.03250    3.92530
 1294080.00000   73.26350  140.56050   45.55640    0.16650   11.22480    2.53410    4.23810    4.56510
 1294140.00000   69.73140  135.95650   42.97150    0.14610   11.10150    2.59410    4.69340    4.41470
 1294200.00000   62.89790  129.85210   41.15980    0.12800    8.82240    2.63120    5.63080    5.02570
 1294260.00000   57.57270  122.81600   39.31330    0.10920    7.29430    2.65580    6.05140    5.38640
 1294320.00000   53.35800  124.32940   36.77490    0.10110    6.41780    2.65150    5.81160    5.15560
 1294380.00000   54.56240  126.98830   34.98890    0.10260    4.99800    2.64500    5.31620    4.81440
 1294440.00000   58.62260  129.64729   34.18690    0.09830    4.40310    2.62410    4.69000    4.31850
 1294500.00000   56.59740  132.30630   37.69670    0.10500    3.93120    2.57450    4.42410    4.28150
 1294560.00000   62.63980  135.46339   39.99010    0.11610    3.58870    2.51630    4.00840    4.27260
 1294620.00000   67.92690  141.37489   45.07080    0.15010    3.33510    2.47010    3.60710    4.32470
 1294680.00000   80.70060  148.79201   49.63020    0.16330    3.13810    2.51070    2.99120    4.44570
 1294740.00000   83.26940  150.10741   54.25280    0.19330    2.77970    2.54480    2.27370    4.68510
 1294800.00000   84.92300  151.42281   56.76550    0.20540    2.50860    2.56610    1.85010    3.67520
 1294860.00000   82.57620  152.10970   54.31260    0.22030    2.47930    2.51640    1.51510    2.50930
 1294920.00000   79.29170  150.89220   51.23270    0.22040    2.43690    2.48910    1.43140    2.13600
 1294980.00000   74.55170  148.61771   48.40320    0.21410    2.25340    2.50170    1.37870    1.62790
 1295040.00000   74.09620  144.81689   48.19350    0.20140    2.28740    2.51260    1.32660    1.51040
 1295100.00000   76.69470  140.02890   48.93610    0.19600    1.73290    2.50860    1.21420    2.31790
 1295160.00000   76.80180  136.76680   45.53650    0.18110    2.01850    2.48630    1.16250    1.58360
 1295220.00000   78.05070  138.15021   44.62020    0.19000    2.38190    2.47870    1.15010    1.28280
 1295280.00000   80.49470  140.54781   45.13830    0.19610    2.60800    2.48190    1.23460    1.18770
 1295340.00000   79.14220  141.46941   48.04490    0.19630    2.46390    2.48680    1.37230    1.50790
 1295400.00000   72.26990  142.55701   46.17990    0.17660    2.79700    2.50150    1.78120    2.55460
 1295460.00000   69.49730  141.73970   42.19860    0.15530    3.46920    2.53390    2.52420    3.29820
 1295520.00000   66.64780  133.94110   35.91230    0.12290    3.80350    2.57960    5.01700    4.99180
 1295580.00000   61.77460  124.52850   30.39390    0.10970    4.26770    2.60900    8.52220    9.69970
 1295640.00000   57.47460  119.76010   25.45760    0.08680    4.28710    2.62680    8.98560   13.37660
 1295700.00000   55.38890  122.33540   22.65840    0.07310    4.72120    2.62580    7.41870   16.26190
 1295760.00000   58.11590  118.65230   21.91990    0.07330    4.84370    2.59060    6.60650   11.54020
 1295820.00000   56.66540  115.38510   22.94690    0.07880    4.95420    2.54180    7.61060    9.55740
 1295880.00000   59.40330  114.24570   26.31310    0.07020    5.62650    2.55380    7.18550    9.93450
 1295940.00000   63.41480  115.82420   31.02530    0.08960    6.14060    2.37390    6.30440   10.22850
 1296000.00000   65.99430  117.40880   33.56350    0.11980    6.69740    2.39180    5.06740    6.50910
 1296060.00000   63.65930  119.17550   35.17970    0.12960   10.68870    2.38040    4.09840    3.22100
 1296120.00000   65.04730  121.38380   34.85010    0.11360    5.92400    2.58400    3.67370    5.08460
 1296180.00000   67.22820  123.71260   34.37440    0.12250    5.82200    2.60400    3.58500    4.85890
 1296240.00000   71.65820  126.64440   33.18450    0.13250    6.83910    2.60760    3.07050    5.25740
 1296300.00000   77.08600  130.32761   33.00550    0.15290    7.91710    2.50590    3.04480    3.87180
 1296360.00000   81.43530  134.86340   31.91710    0.16830   19.14190    2.37710    3.05050    1.32140
 1296420.00000   80.34870  142.98660   29.33660    0.18490   13.24240    2.24580    6.20030    6.65740
 1296480.00000   83.80250  152.12759   24.80340    0.20530   14.99680    2.18650    8.57890   13.75860
 1296540.00000   85.31710  154.43040   21.98510    0.20510   18.20690    2.14470   11.52610   61.70060
 1296600.00000   84.53230  156.17110   20.38820    0.22180   17.85800    2.12460   21.49650   95.29890
 1296660.00000   88.03120  157.64740   19.30200    0.22270   18.14890    2.12280   48.49860   78.57240
 1296720.00000   93.22040  158.36810   17.62740    0.22110   28.22360    2.11340   68.11370  178.55161
 1296780.00000   91.98560  158.71040   16.55670    0.22020   36.51850    2.14530   76.97370  152.05800
 1296840.00000   88.08340  158.42030   16.47490    0.22060   34.77330    2.15000   54.22190  110.95820
 1296900.00000   88.11720  156.72870   17.14950    0.22260   28.83480    2.16870   45.71020   86.63340
 1296960.00000   88.53400  152.79401   17.47900    0.22890   26.44770    2.14030   44.50650   68.71300
 1297020.00000   87.27880  152.89970   18.10860    0.21710   24.96500    2.14240   43.85270   59.92000
 1297080.00000   86.65620  153.07500   19.43710    0.21190   24.60630    2.13230   45.44800   54.87760
 1297140.00000   86.81980  153.37570   20.00420    0.21710   24.91860    2.12930   47.48910   52.52390
 1297200.00000   86.82890  155.89990   20.30000    0.20210   25.86790    2.12700   49.88430   51.61220
 1297260.00000   88.04390  158.73759   19.49420    0.20810   26.54940    2.13450   50.57570   51.64270
 1297320.00000   89.89840  159.02620   19.47290    0.20840   27.06930    2.14710   51.17740   51.35700
 1297380.00000   91.48920  158.16560   19.83280    0.21230   27.71310    2.15440   51.04300   52.64180
 1297440.00000   91.66060  158.59700   18.94070    0.20970   28.61660    2.16320   51.65790   52.42010
 1297500.00000   91.36650  159.47569   18.86920    0.21650   29.37040    2.15890   48.52110   50.65160
 1297560.00000   92.67180  159.99471   18.25480    0.22190   30.25310    2.15640   48.54890   50.34120
 1297620.00000   93.99950  160.28329   18.51230    0.22620   31.63130    2.15250   49.49790   51.15540
 1297680.00000   94.11520  159.21130   18.36370    0.21180   31.80990    2.16200   48.12860   51.36520
 1297740.00000   94.32670  157.73199   18.42090    0.20460   33.36710    2.15960   47.97920   50.42700
 1297800.00000   93.24500  157.46001   19.14430    0.21780   34.78320    2.16160   46.12770   49.33900
 1297860.00000   93.55670  163.62340   18.88960    0.22110   35.13640    2.15370   46.08260   48.94520
 1297920.00000   93.78660  161.68100   18.53220    0.21280   36.07160    2.16080   43.76440   48.33130
 1297980.00000   93.45660  160.15109   19.59000    0.19860   36.32500    2.18570   42.10400   47.62990
 1298040.00000   91.83330  158.78059   19.75600    0.19680   36.22810    2.20350   40.70650   46.65020
 1298100.00000   91.25790  158.52600   20.27990    0.20710   35.97220    2.21490   39.84160   40.90740
