~Version ---------------------------------------------------
VERS.   2.0 : CWLS log ASCII Standard -VERSION 2.0
WRAP.    NO : One line per depth step
DLM . SPACE : Column Data Section Delimiter
~Well ------------------------------------------------------
STRT.0.1 in          78840.00000 : START DEPTH
STOP.0.1 in        1388160.00000 : STOP DEPTH
STEP.0.1 in             60.00000 : STEP
NULL.                    -999.25 : NULL VALUE
COMP.               STATOILHYDRO : COMPANY
WELL.                   15/9-F-4 : WELL
FLD .                      VOLVE : FIELD
LOC .                            : LOCATION
PROV.                            : PROVINCE
CNTY.                            : COUNTY
STAT.                            : STATE
CTRY.                            : COUNTRY
SRVC.    CROCKER DATA PROCESSING : SERVICE COMPANY
DATE. 2009-02-18 14:26:33.389000 : DATE
UWI .                            : UNIQUE WELL ID
API .                            : API NUMBER
~Curve Information -----------------------------------------
DEPTH.0.1 in       : 
DT   .us/ft        : 
DTS  .us/ft        : 
GR   .API          : 
NPHI .v/v_decimal  : 
RD   .UNKNOWN      : 
RHOB .g/cm3        : 
RS   .UNKNOWN      : 
RT   .ohm.m        : 
~Params ----------------------------------------------------
PROD   .                           PETROLOG : 
PROG   .               ['PETROLOG-TO-DLIS'] : 
RUN    .                                 [] : 
DESCENT.                                 [] : 
VERSION.                              10.00 : 
LINEAGE.         Python-converted from DLIS : 
ORFILE . WLC_PETRO_COMPUTED_INPUT_1(1).DLIS : 
~Other -----------------------------------------------------
~ASCII -----------------------------------------------------
# ...
 1274760.00000   77.41110  149.98500   34.27320    0.26930    1.80810    3.20130    1.59350    1.67300
 1274820.00000   73.05670  143.99910   34.00040    0.30240    1.69980    3.15110    1.82900    2.26090
 1274880.00000   70.19930  139.27870   35.94440    0.33370    1.53980    3.04350    2.43180    2.72210
 1274940.00000   69.29520  136.17810   34.91200    0.36040    1.42840    2.95160    1.98330    2.53440
 1275000.00000   70.90890  139.27260   35.55420    0.41650    2.19080    2.84680    1.73990    1.51920
 1275060.00000   75.69900  147.94971   34.54820    0.38510    1.52910    2.79110    1.75310    2.15690
 1275120.00000   81.70960  147.06039   33.51660    0.42220    1.60770    2.73460    1.74760    2.17070
 1275180.00000   82.87240  144.59821   33.30250    0.42440    1.51590    2.69410    1.52440    1.85180
 1275240.00000   80.35010  144.65041   34.74840    0.34990    1.28000    2.66280    1.35370    1.86360
 1275300.00000   75.86540  151.42430   36.71250    0.35030    1.64010    2.71910    1.10230    0.91110
 1275360.00000   75.05310  151.06540   36.63980    0.28590    1.48760    2.78330    1.10260    0.91480
 1275420.00000   73.37700  144.91550   35.13580    0.26640    1.24670    2.85030    1.22350    1.13420
 1275480.00000   69.67710  142.45261   33.15720    0.26850    1.05100    2.86240    1.38900    1.42830
 1275540.00000   67.93260  138.00270   31.39220    0.27510    1.03440    2.81710    1.36890    1.82030
 1275600.00000   69.68910  133.85789   30.91960    0.27390    1.01650    2.79150    1.28610    1.68080
 1275660.00000   71.96180  135.58350   30.93680    0.27230    1.31730    2.77230    0.91070    0.78160
 1275720.00000   73.74150  138.93950   30.84210    0.26290    1.13000    2.78450    0.87540    0.82590
 1275780.00000   74.73440  140.80560   32.74200    0.26580    1.02470    2.75740    0.82860    0.89520
 1275840.00000   75.94930  144.58459   35.90970    0.29030    0.89670    2.65160    0.83360    1.13030
 1275900.00000   77.40900  146.72881   38.98490    0.28400    0.81630    2.56970    0.79740    1.21780
 1275960.00000   77.21010  148.04790   40.38940    0.25410    1.12160    2.51590    0.78820    0.79880
 1276020.00000   76.25320  148.14909   39.74110    0.24800    1.16400    2.51490    0.86080    0.88490
 1276080.00000   78.13950  147.12010   40.85850    0.22630    1.23100    2.51250    0.98600    0.99740
 1276140.00000   77.93150  153.42030   40.37640    0.21200    1.35850    2.52590    1.03760    1.22960
 1276200.00000   75.90770  155.28110   40.51340    0.19220    1.45400    2.51800    1.11760    1.49750
 1276260.00000   76.35760  154.20000   38.53690    0.19350    1.60520    2.49090    1.21930    1.95930
 1276320.00000   75.51280  152.98590   37.43630    0.18330    1.63790    2.45880    1.21570    2.11380
 1276380.00000   76.29550  149.19250   39.90270    0.18930    1.84460    2.43920    1.28370    2.03090
 1276440.00000   79.88820  144.75391   44.72280    0.19760    2.38920    2.44700    1.43690    1.76090
 1276500.00000   81.12440  147.98289   52.31410    0.19740    2.61700    2.46450    1.64230    1.67310
 1276560.00000   79.43410  145.20570   58.22070    0.19290    2.56600    2.49870    1.74490    2.07980
 1276620.00000   77.66140  143.56239   61.05470    0.21210    2.83140    2.48970    1.99100    2.80660
 1276680.00000   75.91480  142.53340   60.39590    0.22000    3.23210    2.45280    2.30190    2.86910
 1276740.00000   75.80130  141.13570   56.50240    0.21360    3.49750    2.40260    2.93650    3.25800
 1276800.00000   77.45970  140.09010   51.03770    0.20700    3.67810    2.37120    3.63150    4.38610
 1276860.00000   79.87130  140.66431   46.51660    0.21820    3.57910    2.33760    3.63020    5.91930
 1276920.00000   81.29850  143.78450   42.26050    0.21370    4.01920    2.33810    3.59370    5.18240
 1276980.00000   82.34920  146.54590   40.66370    0.21500    4.12880    2.39100    3.54420    4.86910
 1277040.00000   83.52180  150.11501   40.77860    0.21950    4.57220    2.43260    3.50430    4.30060
 1277100.00000   84.34330  152.55679   42.75390    0.23030    4.70660    2.42050    3.50470    4.38090
 1277160.00000   86.04980  152.67081   45.42460    0.23080    4.89940    2.34750    3.52680    4.41400
 1277220.00000   87.34580  153.20880   43.95430    0.23310    4.82850    2.31170    3.88320    5.47310
 1277280.00000   88.32240  155.06281   40.43240    0.23150    4.98320    2.29740    4.35920    6.36480
 1277340.00000   89.07620  156.46201   37.16170    0.21650    4.98840    2.28430    5.09560    6.95370
 1277400.00000   88.81390  158.65820   34.17240    0.20910    4.92810    2.28340    5.99650    7.59430
 1277460.00000   88.51780  157.36099   34.54280    0.22450    4.86300    2.27610    6.97510    7.83070
 1277520.00000   87.68150  151.39250   33.33840    0.23860    4.83560    2.28190    7.65790    8.09380
 1277580.00000   86.24230  146.37289   33.38260    0.21230    4.76910    2.28530    8.27170    8.35600
 1277640.00000   82.37180  142.77139   32.37010    0.21330    4.78650    2.28990    8.50260    8.17480
 1277700.00000   81.34720  142.24409   33.26380    0.20260    4.79730    2.29590    8.35140    8.04190
 1277760.00000   81.58550  142.57120   34.15350    0.21490    4.79460    2.29300    8.20930    8.55380
 1277820.00000   82.43940  144.66319   35.33560    0.20700    4.82190    2.29020    8.04450    8.78110
 1277880.00000   83.11850  145.92790   34.95080    0.21340    4.82730    2.27820    7.70030    9.47450
 1277940.00000   82.70250  146.11301   35.39780    0.21500    4.86920    2.26970    7.38710   10.22260
 1278000.00000   84.21080  146.93100   36.17050    0.23700    4.79650    2.25410    6.97730   10.15790
 1278060.00000   85.07460  147.93860   37.51330    0.23770    4.49490    2.24630    6.58820    8.86720
 1278120.00000   88.52980  148.63950   38.54520    0.25350    4.29620    2.25340    6.20200    7.79710
 1278180.00000   91.43920  151.03970   40.65630    0.23280    4.13770    2.33840    6.02000    7.95550
 1278240.00000   89.22780  155.48511   42.41530    0.22860    3.94290    2.48450    5.18980    6.94600
 1278300.00000   85.28750  157.02409   46.74130    0.23410    3.92970    2.63770    3.81900    5.53430
 1278360.00000   86.86840  157.73270   50.59260    0.24290    4.17700    2.68770    2.89220    4.13560
 1278420.00000   86.06530  157.25520   56.95850    0.28800    4.95480    2.59030    2.14520    2.61010
 1278480.00000   85.85090  161.32140   65.33250    0.32190    4.82250    2.52350    1.65570    1.87250
 1278540.00000   84.43920  160.74040   73.56810    0.32110    2.71060    2.50080    1.93580    2.49100
 1278600.00000   82.97960  159.75670   80.52480    0.35570    2.49030    2.49570    1.78060    2.32070
 1278660.00000   82.85760  159.62450   82.07220    0.40290    2.24110    2.51340    1.62640    1.96790
 1278720.00000   83.99850  160.17230   84.08740    0.37300    1.89190    2.49650    1.57690    1.63190
 1278780.00000   85.45890  164.06841   84.86050    0.39940    1.93760    2.47330    1.55310    1.39380
 1278840.00000   87.04330  169.26331   87.62700    0.44240    1.71020    2.45310    1.70110    1.70660
 1278900.00000   89.35690  171.23520   84.72630    0.40130    1.68210    2.49090    1.60160    2.01970
 1278960.00000   91.04640  168.28490   81.95510    0.38060    1.54780    2.55980    1.29790    2.28660
 1279020.00000   91.72690  168.00090   74.58780    0.38600    1.38060    2.60750    0.87140    1.50820
 1279080.00000   90.75590  164.16589   68.03410    0.33720    1.48500    2.61620    0.65150    0.70540
 1279140.00000   87.50800  158.25020   57.49110    0.34150    3.76600    2.56840    0.55880    0.53450
 1279200.00000   85.50540  152.21150   43.81710    0.25050    2.95030    2.50000    1.40920    1.56380
 1279260.00000   82.83010  146.77890   31.58300    0.24100    3.71390    2.39400    4.63790    4.95130
 1279320.00000   80.60040  142.54179   22.89440    0.21470    5.16080    2.30190    8.28080    9.97120
 1279380.00000   80.50170  140.69040   21.25600    0.16890    6.87420    2.25380   10.84600   14.05250
