~Version ---------------------------------------------------
VERS.   2.0 : CWLS log ASCII Standard -VERSION 2.0
WRAP.    NO : One line per depth step
DLM . SPACE : Column Data Section Delimiter
~Well ------------------------------------------------------
STRT.0.1 in          78840.00000 : START DEPTH
STOP.0.1 in        1388160.00000 : STOP DEPTH
STEP.0.1 in             60.00000 : STEP
NULL.                    -999.25 : NULL VALUE
COMP.               STATOILHYDRO : COMPANY
WELL.                   15/9-F-4 : WELL
FLD .                      VOLVE : FIELD
LOC .                            : LOCATION
PROV.                            : PROVINCE
CNTY.                            : COUNTY
STAT.                            : STATE
CTRY.                            : COUNTRY
SRVC.    CROCKER DATA PROCESSING : SERVICE COMPANY
DATE. 2009-02-18 14:26:33.389000 : DATE
UWI .                            : UNIQUE WELL ID
API .                            : API NUMBER
~Curve Information -----------------------------------------
DEPTH.0.1 in       : 
DT   .us/ft        : 
DTS  .us/ft        : 
GR   .API          : 
NPHI .v/v_decimal  : 
RD   .UNKNOWN      : 
RHOB .g/cm3        : 
RS   .UNKNOWN      : 
RT   .ohm.m        : 
~Params ----------------------------------------------------
PROD   .                           PETROLOG : 
PROG   .               ['PETROLOG-TO-DLIS'] : 
RUN    .                                 [] : 
DESCENT.                                 [] : 
VERSION.                              10.00 : 
LINEAGE.         Python-converted from DLIS : 
ORFILE . WLC_PETRO_COMPUTED_INPUT_1(1).DLIS : 
~Other -----------------------------------------------------
~ASCII -----------------------------------------------------
# ...
 1237320.00000   92.56390 -999.25000  134.06911    0.30720    1.85550    2.44870    1.71090    1.99170
 1237380.00000   92.27550 -999.25000  137.38969    0.31320    1.95240    2.44520    1.67610    1.73770
 1237440.00000   91.21000 -999.25000  139.60069    0.30400    1.91830    2.45180    1.71500    1.83690
 1237500.00000   91.34110 -999.25000  138.96300    0.31090    1.97120    2.46540    1.68890    1.74450
 1237560.00000   91.43990 -999.25000  136.22279    0.31390    1.86880    2.46670    1.74920    1.90940
 1237620.00000   91.70220 -999.25000  134.99010    0.32180    1.78970    2.45830    1.72700    2.04330
 1237680.00000   91.57880 -999.25000  134.98151    0.32660    1.80450    2.44270    1.75800    2.01870
 1237740.00000   91.89260 -999.25000  134.94209    0.31990    1.86170    2.43720    1.68030    1.89070
 1237800.00000   93.47420 -999.25000  135.52420    0.31630    1.84280    2.43930    1.64660    1.87440
 1237860.00000   93.73860 -999.25000  135.99200    0.32570    1.80570    2.44310    1.59990    1.88280
 1237920.00000   95.31250 -999.25000  138.96220    0.31620    1.76110    2.44910    1.63300    1.93890
 1237980.00000   95.63330 -999.25000  138.34590    0.33380    1.81980    2.45910    1.56570    1.75500
 1238040.00000   95.89350 -999.25000  140.19991    0.32730    1.79010    2.45480    1.55550    1.80320
 1238100.00000   94.46770 -999.25000  137.10060    0.31790    1.78320    2.45050    1.57840    1.88830
 1238160.00000   95.30550 -999.25000  136.37250    0.31680    1.80900    2.44750    1.58650    1.82310
 1238220.00000   96.43650 -999.25000  135.60120    0.31360    1.83670    2.45180    1.56660    1.73710
 1238280.00000   96.13260 -999.25000  136.37190    0.32160    1.86750    2.44870    1.54820    1.68820
 1238340.00000   95.30330 -999.25000  137.76511    0.32040    1.90990    2.44470    1.51760    1.63930
 1238400.00000   94.44310 -999.25000  138.77020    0.34520    1.89280    2.45290    1.53350    1.71750
 1238460.00000   94.69690 -999.25000  139.02650    0.31630    1.90870    2.45020    1.55380    1.65890
 1238520.00000   95.36400 -999.25000  138.66980    0.31120    1.84340    2.44340    1.59270    1.77160
 1238580.00000   96.79540 -999.25000  137.52130    0.32060    1.91620    2.44740    1.56970    1.66310
 1238640.00000   94.62360 -999.25000  137.36670    0.34220    1.91470    2.46180    1.60540    1.69030
 1238700.00000   94.77870 -999.25000  139.43381    0.32520    1.89230    2.46830    1.66240    1.77460
 1238760.00000   94.29500 -999.25000  140.12910    0.33150    1.79950    2.46700    1.74630    2.02050
 1238820.00000   94.30350 -999.25000  140.78450    0.30720    1.77300    2.45870    1.79000    2.10660
 1238880.00000   94.17930 -999.25000  137.10800    0.30230    1.84030    2.45480    1.75130    2.01070
 1238940.00000   93.45020 -999.25000  137.16240    0.29970    1.87950    2.45020    1.71670    1.90260
 1239000.00000   93.48200 -999.25000  134.40240    0.33030    1.80480    2.46020    1.73180    1.98040
 1239060.00000   92.99120  171.14980  133.94530    0.30300    1.77980    2.47860    1.65500    1.91610
 1239120.00000   93.85220  167.36169  131.20959    0.29610    1.74700    2.48250    1.63610    1.91330
 1239180.00000   93.95020  158.52530  133.15440    0.31660    1.87030    2.48630    1.50900    1.61400
 1239240.00000   93.58910  157.02940  132.80170    0.31840    1.89140    2.47670    1.48710    1.60420
 1239300.00000   93.12940  155.60899  128.95570    0.33810    1.81640    2.47550    1.43650    1.58850
 1239360.00000   93.04900  158.12340  123.81250    0.33510    1.87680    2.47410    1.37710    1.47530
 1239420.00000   94.20470  160.16170  120.02840    0.32150    1.88880    2.46890    1.35370    1.46870
 1239480.00000   94.13910  163.05080  122.82600    0.33740    1.86880    2.46900    1.39740    1.54650
 1239540.00000   94.46000  170.92619  127.43730    0.36470    1.93740    2.45140    1.48080    1.56430
 1239600.00000   95.18910  176.53360  131.66150    0.36810    1.91470    2.43710    1.60860    1.73140
 1239660.00000   95.10800  177.89799  135.67470    0.34340    1.89420    2.41270    1.76470    1.98680
 1239720.00000   96.45480  175.26880  140.41850    0.37500    2.12450    2.40700    1.71720    1.80960
 1239780.00000   98.48850  176.86670  144.31480    0.38200    2.12260    2.41150    1.72760    1.89220
 1239840.00000   98.49480  167.29269  144.36490    0.38350    1.99110    2.42080    1.78420    2.04030
 1239900.00000   96.99430  161.07719  143.25560    0.37620    2.03910    2.42300    1.74590    1.86510
 1239960.00000   96.83910  163.94380  144.95970    0.34550    2.13730    2.41970    1.74370    1.84290
 1240020.00000   97.32290  164.79900  143.70770    0.36390    2.24330    2.41690    1.82940    1.94900
 1240080.00000   97.41310  161.39670  143.26559    0.36870    2.34070    2.41660    1.96090    2.16960
 1240140.00000   97.57740  163.52049  143.24290    0.35570    2.45930    2.41360    1.94200    2.18780
 1240200.00000   97.79040  164.74809  145.73109    0.34390    2.44970    2.40890    2.14240    2.41780
 1240260.00000   98.17750  165.83681  145.21350    0.35920    2.50040    2.40370    1.84750    1.87730
 1240320.00000   99.25850  166.35950  144.16190    0.35210    2.43580    2.39230    1.78620    1.98260
 1240380.00000   98.42220  166.45790  144.06400    0.40080    2.42710    2.38370    1.76650    1.95470
 1240440.00000   98.06890  168.14740  145.22639    0.37680    2.41240    2.37460    1.80090    2.05180
 1240500.00000   98.02170  171.25410  145.11670    0.40480    2.38430    2.37230    1.94070    2.15420
 1240560.00000   99.78520  168.95129  143.42619    0.40270    2.48740    2.37810    1.93610    2.12720
 1240620.00000  100.58840  168.58560  139.67830    0.34500    2.44630    2.39010    1.98860    2.13860
 1240680.00000  100.30910  171.45050  137.16730    0.38130    2.32460    2.41120    2.04330    2.21750
 1240740.00000  100.11310  173.77290  132.20329    0.40750    2.21400    2.42350    1.97870    2.23040
 1240800.00000  100.04540  176.37190  132.49380    0.38790    2.25950    2.42520    1.78660    1.85560
 1240860.00000   98.17540  175.06940  128.44240    0.36120    2.32500    2.41290    1.66570    1.58760
 1240920.00000   97.58590  174.90021  130.02721    0.37270    2.21370    2.40810    1.60140    1.60770
 1240980.00000   98.38200  179.62511  128.57050    0.37110    2.00030    2.40540    1.71710    1.93400
 1241040.00000   98.75780  179.27299  128.76720    0.34990    2.00860    2.40970    1.69380    1.88820
 1241100.00000   97.96310  178.71091  129.62550    0.35820    1.93000    2.41850    1.70880    1.91560
 1241160.00000   98.43910  178.23500  129.58141    0.37090    1.92860    2.43430    1.73710    1.87700
 1241220.00000   98.75850  176.97031  132.58141    0.36440    1.89900    2.44450    1.76390    1.93400
 1241280.00000   98.43840  176.28270  132.76230    0.37480    1.86490    2.44440    1.77350    2.03350
 1241340.00000   98.15990  173.98000  133.17731    0.34410    1.82430    2.45060    1.87970    2.16670
 1241400.00000   98.14290  172.23930  128.61749    0.35730    1.84080    2.46820    1.89210    2.14660
 1241460.00000   98.04560  171.45050  123.51800    0.33860    1.83290    2.46850    1.82420    2.11710
 1241520.00000   98.53640  172.60950  118.92600    0.36070    1.80110    2.46350    1.81250    2.02790
 1241580.00000   97.70010  171.64090  119.15380    0.36200    1.88030    2.45050    1.66510    1.77850
 1241640.00000   96.68050  171.77080  122.19470    0.33110    1.88330    2.45610    1.60780    1.73770
 1241700.00000   94.41840  175.48950  122.53710    0.34830    1.82740    2.44660    1.59940    1.79730
 1241760.00000   94.43390  170.49710  120.51190    0.32570    1.82030    2.44530    1.56740    1.64200
 1241820.00000   93.43260  167.68660  118.46250    0.35600    1.88110    2.44160    1.51870    1.51370
 1241880.00000   92.14430  166.73460  117.03310    0.34990    1.80270    2.45580    1.55280    1.59880
 1241940.00000   91.60490  164.09940  117.48570    0.34490    1.76920    2.46040    1.54040    1.63420
