~Version ---------------------------------------------------
VERS.   2.0 : CWLS log ASCII Standard -VERSION 2.0
WRAP.    NO : One line per depth step
DLM . SPACE : Column Data Section Delimiter
~Well ------------------------------------------------------
STRT.0.1 in          78840.00000 : START DEPTH
STOP.0.1 in        1388160.00000 : STOP DEPTH
STEP.0.1 in             60.00000 : STEP
NULL.                    -999.25 : NULL VALUE
COMP.               STATOILHYDRO : COMPANY
WELL.                   15/9-F-4 : WELL
FLD .                      VOLVE : FIELD
LOC .                            : LOCATION
PROV.                            : PROVINCE
CNTY.                            : COUNTY
STAT.                            : STATE
CTRY.                            : COUNTRY
SRVC.    CROCKER DATA PROCESSING : SERVICE COMPANY
DATE. 2009-02-18 14:26:33.389000 : DATE
UWI .                            : UNIQUE WELL ID
API .                            : API NUMBER
~Curve Information -----------------------------------------
DEPTH.0.1 in       : 
DT   .us/ft        : 
DTS  .us/ft        : 
GR   .API          : 
NPHI .v/v_decimal  : 
RD   .UNKNOWN      : 
RHOB .g/cm3        : 
RS   .UNKNOWN      : 
RT   .ohm.m        : 
~Params ----------------------------------------------------
PROD   .                           PETROLOG : 
PROG   .               ['PETROLOG-TO-DLIS'] : 
RUN    .                                 [] : 
DESCENT.                                 [] : 
VERSION.                              10.00 : 
LINEAGE.         Python-converted from DLIS : 
ORFILE . WLC_PETRO_COMPUTED_INPUT_1(1).DLIS : 
~Other -----------------------------------------------------
~ASCII -----------------------------------------------------
# ...
 1312200.00000   85.00050  136.09120   25.74470    0.17860   77.66300    2.24620   64.99410   69.55610
 1312260.00000   87.27180  136.35260   25.97560    0.19890   73.65740    2.11140   61.34460   66.82800
 1312320.00000   87.21250  134.22510   27.77510    0.19450   75.13150    2.05620   61.71600   64.70190
 1312380.00000   85.63800  132.94380   26.04200    0.18390   72.72220    2.07460   59.97790   64.13840
 1312440.00000   84.84190  133.17039   25.14970    0.17170   76.90270    2.15780   58.02740   61.82370
 1312500.00000   83.97240  131.79990   24.35460    0.15910   71.94590    2.27350   58.94150   60.50790
 1312560.00000   82.69050  131.73039   23.62320    0.16040   75.39250    2.35300   56.87510   61.26790
 1312620.00000   80.79860  132.76849   23.44790    0.15630   77.15080    2.36830   56.96520   60.43590
 1312680.00000   82.53820  133.45151   22.84020    0.15800   75.19180    2.31850   55.31250   60.50770
 1312740.00000   83.33150  133.06920   23.75320    0.16770   74.04300    2.29180   53.63750   59.29290
 1312800.00000   82.47260  136.63670   21.94150    0.17440   76.20890    2.26090   52.08600   58.48050
 1312860.00000   84.17060  138.73790   20.81130    0.17040   77.41960    2.25820   51.08080   58.02600
 1312920.00000   85.19580  140.63870   20.37570    0.17990   81.74090    2.24910   52.13930   57.13430
 1312980.00000   85.95100  139.85361   21.30960    0.18230   79.30120    2.23770   51.06300   57.55380
 1313040.00000   86.63930  140.02850   22.24040    0.17860   77.76020    2.21900   52.53780   58.56570
 1313100.00000   86.05610  140.26250   20.99600    0.18310   76.70430    2.20850   55.63930   62.42200
 1313160.00000   85.79590  141.18649   20.50590    0.17700   79.56430    2.19940   56.59390   63.28670
 1313220.00000   87.27110  142.00890   19.25820    0.18640   79.60280    2.19590   58.32060   64.43350
 1313280.00000   88.14400  142.92790   18.76630    0.19040   81.19960    2.18950   58.80520   65.31870
 1313340.00000   90.74110  143.70570   18.37480    0.17860   78.08380    2.18820   60.93640   63.81370
 1313400.00000   89.05860  143.82890   17.82340    0.18490   79.53680    2.18510   59.26220   64.06940
 1313460.00000   87.35290  142.88390   18.41670    0.16950   86.84070    2.19030   63.61800   64.76410
 1313520.00000   86.48270  140.39760   18.28710    0.17350   82.60410    2.19390   64.11210   68.91410
 1313580.00000   84.97230  140.39079   19.05990    0.16900   84.18190    2.21010   68.45830   69.55020
 1313640.00000   82.85550  141.23170   18.91650    0.17450   82.50240    2.22190   71.70530   70.82830
 1313700.00000   81.14130  138.80499   19.41770    0.17360   79.12980    2.24340   76.03250   74.91320
 1313760.00000   80.32120  136.41460   18.77430    0.15480   82.87370    2.26220   83.11400   80.11200
 1313820.00000   79.88610  134.89371   17.79620    0.15290   82.75350    2.26970   86.64380   84.36660
 1313880.00000   79.47640  133.49600   16.14980    0.14780   76.97220    2.27740   90.01730   92.55770
 1313940.00000   79.60760  132.29179   15.54080    0.14420   80.21910    2.27140   97.75600   90.00410
 1314000.00000   79.60760  131.46600   14.55040    0.14430   79.83710    2.27050   96.91470   93.29540
 1314060.00000   79.43480  131.53700   14.22030    0.15490   80.06550    2.25790  102.04310   92.13730
 1314120.00000   79.49410  132.17841   14.98440    0.14910   84.46200    2.25450  106.46720   92.07630
 1314180.00000   81.34010  132.44209   16.78500    0.15320   81.25810    2.25210  100.31750   88.62030
 1314240.00000   82.48740  132.55620   17.06560    0.15260   83.64200    2.25820   93.90250   80.95400
 1314300.00000   81.95360  132.22150   16.86650    0.14960   88.94310    2.25720  102.51640  108.15640
 1314360.00000   81.28160  131.46600   16.43160    0.14620   91.38870    2.24980   99.43040   99.61610
 1314420.00000   81.58550  131.43120   15.86630    0.14470   87.23230    2.23700  110.95610   94.54670
 1314480.00000   82.09390  132.16180   15.23690    0.14720   90.62790    2.23590  112.15350   91.29050
 1314540.00000   82.49660  133.54140   13.98040    0.14680   86.90970    2.24090  107.82610   93.41970
 1314600.00000   83.02050  134.66780   12.98850    0.14400   94.10410    2.24140  104.94650   93.14920
 1314660.00000   82.64390  136.77721   11.37600    0.14510   88.92280    2.23030  101.05960   88.49890
 1314720.00000   83.16080  138.21870   11.76530    0.15020   86.05720    2.22960  100.54440   89.65130
 1314780.00000   83.90830  139.32629   12.15020    0.16270   91.54320    2.23030   99.44780   85.56320
 1314840.00000   84.75160  140.13470   12.34250    0.16170   91.88390    2.23760  100.95820   87.21280
 1314900.00000   83.93150  140.99750   12.66980    0.15890   89.06500    2.23630  101.64000   87.05350
 1314960.00000   83.94070  143.12500   13.38120    0.15530   83.76650    2.23310  100.72820   85.32110
 1315020.00000   84.58800  143.93040   16.38310    0.16820   85.92850    2.22850   97.48460   83.81140
 1315080.00000   84.21850  141.96300   18.35560    0.16940   91.56240    2.22300   94.00530   83.90140
 1315140.00000   83.88290  142.59760   21.44290    0.16450   81.36800    2.22680   73.35070   77.00570
 1315200.00000   84.16140  143.91370   22.04650    0.16190   81.20480    2.23800   66.40060   73.54200
 1315260.00000   84.12900  143.06230   22.74000    0.16410   79.54470    2.24120   65.41750   71.18260
 1315320.00000   84.29260  143.57230   20.81230    0.17290   82.04730    2.25150   60.02090   67.80660
 1315380.00000   84.25240  144.12601   19.44690    0.17720   83.02130    2.24930   54.14320   65.28150
 1315440.00000   84.94130  144.47740   17.40010    0.17480   81.99720    2.24480   52.75530   63.31240
 1315500.00000   85.05550  144.23940   18.16460    0.18080   79.88890    2.23080   50.63180   61.54390
 1315560.00000   84.76080  143.65990   19.03970    0.18250   78.28290    2.22650   49.85450   61.06340
 1315620.00000   84.89970  144.09129   20.41740    0.17630   78.31580    2.22760   50.53300   60.33100
 1315680.00000   84.52240  144.46750   20.85950    0.18140   77.49740    2.22870   49.57090   58.90950
 1315740.00000   84.31720  143.28140   20.66350    0.17650   79.28890    2.22600   50.40030   58.35040
 1315800.00000   84.14520  142.82430   21.59570    0.18010   74.59440    2.22900   50.16350   58.24570
 1315860.00000   84.26010  142.38460   22.05350    0.18350   77.65670    2.23130   50.13750   57.58130
 1315920.00000   84.21850  141.83080   21.67890    0.17470   73.56810    2.23430   51.19590   58.58890
 1315980.00000   83.98160  141.71750   19.96820    0.18350   75.45030    2.23680   52.35320   57.11570
 1316040.00000   84.34970  142.05901   19.76520    0.16480   72.84780    2.23510   55.53600   59.94740
 1316100.00000   83.98160  141.33900   20.53670    0.18990   71.95370    2.24070   55.24910   59.60540
 1316160.00000   84.67050  141.29440   21.82800    0.19100   72.07270    2.23810   57.93220   61.27900
 1316220.00000   84.95750  140.93480   21.83370    0.17550   73.27260    2.23520   59.43100   62.22290
 1316280.00000   84.94900  141.33900   21.23010    0.17260   75.24060    2.22360   60.93810   63.52110
 1316340.00000   84.65360  141.55881   20.54740    0.16950   77.87530    2.21800   63.46930   64.06730
 1316400.00000   84.39130  141.98109   19.47320    0.16890   80.44640    2.20610   64.96080   64.72820
 1316460.00000   84.44060  142.25240   18.63140    0.17750   75.39110    2.19680   67.24510   65.29010
 1316520.00000   84.71990  141.61169   18.42510    0.18040   78.38730    2.19250   71.49140   67.37180
 1316580.00000   85.31080  141.83080   19.11170    0.17950   78.78750    2.19740   71.23490   67.31800
 1316640.00000   85.73670  141.55881   17.97660    0.18350   76.41990    2.19940   72.07310   69.42230
 1316700.00000   85.40030  141.92830   15.82610    0.18680   77.32070    2.19380   72.18690   69.64810
 1316760.00000   85.25300  142.45560   14.42020    0.18220   79.61080    2.19370   73.31490   70.74890
 1316820.00000   85.60620  143.02750   15.39640    0.18680   78.48460    2.18300   71.20890   72.00320
