~Version ---------------------------------------------------
VERS.   2.0 : CWLS log ASCII Standard -VERSION 2.0
WRAP.    NO : One line per depth step
DLM . SPACE : Column Data Section Delimiter
~Well ------------------------------------------------------
STRT.0.1 in          78840.00000 : START DEPTH
STOP.0.1 in        1388160.00000 : STOP DEPTH
STEP.0.1 in             60.00000 : STEP
NULL.                    -999.25 : NULL VALUE
COMP.               STATOILHYDRO : COMPANY
WELL.                   15/9-F-4 : WELL
FLD .                      VOLVE : FIELD
LOC .                            : LOCATION
PROV.                            : PROVINCE
CNTY.                            : COUNTY
STAT.                            : STATE
CTRY.                            : COUNTRY
SRVC.    CROCKER DATA PROCESSING : SERVICE COMPANY
DATE. 2009-02-18 14:26:33.389000 : DATE
UWI .                            : UNIQUE WELL ID
API .                            : API NUMBER
~Curve Information -----------------------------------------
DEPTH.0.1 in       : 
DT   .us/ft        : 
DTS  .us/ft        : 
GR   .API          : 
NPHI .v/v_decimal  : 
RD   .UNKNOWN      : 
RHOB .g/cm3        : 
RS   .UNKNOWN      : 
RT   .ohm.m        : 
~Params ----------------------------------------------------
PROD   .                           PETROLOG : 
PROG   .               ['PETROLOG-TO-DLIS'] : 
RUN    .                                 [] : 
DESCENT.                                 [] : 
VERSION.                              10.00 : 
LINEAGE.         Python-converted from DLIS : 
ORFILE . WLC_PETRO_COMPUTED_INPUT_1(1).DLIS : 
~Other -----------------------------------------------------
~ASCII -----------------------------------------------------
# ...
 1195200.00000   73.10900  145.30310   38.78940    0.12230    3.00570    2.57350    2.92940    2.86610
 1195260.00000   73.03500  144.30060   37.25660    0.12050    3.08810    2.57130    2.88380    2.90890
 1195320.00000   72.56680  143.15820   35.78520    0.11910    3.05360    2.56890    2.98180    2.93340
 1195380.00000   71.74670  142.31360   34.73710    0.11540    3.03470    2.56910    3.07050    3.08010
 1195440.00000   71.38570  141.05710   35.58700    0.11400    3.01800    2.57140    3.14530    3.17730
 1195500.00000   70.92590  140.67940   35.70660    0.10880    3.00060    2.57720    3.20760    3.24600
 1195560.00000   70.59870  140.63560   35.38590    0.10750    2.99120    2.57230    3.19200    3.24360
 1195620.00000   71.27140  140.78520   34.49780    0.11140    2.88130    2.57100    3.25680    3.34440
 1195680.00000   72.10910  141.18111   34.98290    0.11090    2.88950    2.56260    3.14070    3.10960
 1195740.00000   74.00530  142.14890   35.35910    0.12020    2.84260    2.55960    3.00370    3.05880
 1195800.00000   76.20320  144.81509   37.97880    0.12100    2.87600    2.55550    2.84040    2.87090
 1195860.00000   77.26160  149.51730   39.87100    0.12810    2.71970    2.55150    2.68930    2.78810
 1195920.00000   78.20510  152.40790   42.28290    0.13920    2.62030    2.54990    2.52130    2.62090
 1195980.00000   78.86930  152.88989   44.05860    0.14020    2.64990    2.54780    2.33720    2.36100
 1196040.00000   78.54780  152.51370   46.53370    0.13910    2.70330    2.55660    2.23620    2.16050
 1196100.00000   77.31870  153.67340   48.40180    0.14510    2.38450    2.55410    2.30270    2.37140
 1196160.00000   78.03300  155.38240   50.26840    0.15400    2.35620    2.54820    2.24340    2.32510
 1196220.00000   79.42850  160.92171   51.71330    0.15390    2.23620    2.54380    2.20930    2.27310
 1196280.00000   81.06870  166.59030   51.93790    0.15840    2.18340    2.54120    2.14240    2.15430
 1196340.00000   81.71670  169.62140   50.36270    0.15720    2.40510    2.54970    1.92590    1.80590
 1196400.00000   82.06930  170.97610   48.39490    0.15640    2.04500    2.54520    2.03550    2.05680
 1196460.00000   81.93740  172.28380   47.15290    0.16300    2.03540    2.54450    1.95280    1.94650
 1196520.00000   81.36340  171.83659   47.96700    0.16260    2.02570    2.53370    1.86950    1.95660
 1196580.00000   81.42970  170.21300   48.48330    0.17070    2.10800    2.53110    1.79620    1.78480
 1196640.00000   82.20110  164.96220   49.95060    0.17300    2.23210    2.52830    1.72680    1.62630
 1196700.00000   83.05430  165.84010   51.03620    0.17720    2.11460    2.52860    1.71090    1.54650
 1196760.00000   83.80110  165.45329   52.75110    0.18700    2.02300    2.52760    1.68920    1.75630
 1196820.00000   83.99640  166.07130   54.61800    0.18790    2.11170    2.53310    1.61200    1.71550
 1196880.00000   81.98460  165.48720   55.33090    0.19390    2.28650    2.54380    1.56690    1.50040
 1196940.00000   78.39050  156.51469   52.30340    0.16980    2.48060    2.55650    1.72510    1.63230
 1197000.00000   74.57500  151.68100   45.29650    0.14020    2.83970    2.56630    1.92000    1.80480
 1197060.00000   71.08880  144.82491   37.18950    0.11810    2.61970    2.57120    2.63380    3.42230
 1197120.00000   69.36760  139.68370   32.42270    0.11040    2.89500    2.57550    3.09450    3.46630
 1197180.00000   69.94290  137.35670   31.27310    0.10410    3.19640    2.58000    3.44590    3.59550
 1197240.00000   70.72850  137.44360   32.11960    0.10240    3.48970    2.58280    3.63640    3.54090
 1197300.00000   69.35840  136.00050   33.49200    0.09800    3.64160    2.58700    3.82110    3.95230
 1197360.00000   68.11100  132.79041   34.10110    0.09540    3.87280    2.59000    3.93360    4.34730
 1197420.00000   66.46940  128.53610   33.21990    0.09270    4.01230    2.59390    4.26190    4.56940
 1197480.00000   64.64870  127.19660   31.60500    0.08800    4.14460    2.59560    4.76420    4.94900
 1197540.00000   63.82020  130.19980   29.80760    0.08470    4.28010    2.59650    4.99030    4.93190
 1197600.00000   63.55860  130.73010   29.55870    0.08260    4.40020    2.59830    5.23940    4.99890
 1197660.00000   64.25600  132.83650   28.75640    0.07700    4.48550    2.60220    5.31820    5.35600
 1197720.00000   65.13460  132.79640   29.36580    0.08060    4.58680    2.60060    5.20170    5.11850
 1197780.00000   66.47150  137.31660   29.61750    0.08620    4.73600    2.59890    4.93600    4.65440
 1197840.00000   67.72810  142.43980   31.69970    0.09060    4.70980    2.59460    4.54160    4.60710
 1197900.00000   70.21440  145.00620   33.26480    0.09560    4.69340    2.58890    4.27050    4.40930
 1197960.00000   72.26430  146.75520   35.75920    0.10230    4.79400    2.58400    3.95290    4.09530
 1198020.00000   72.60840  146.29359   38.53710    0.10860    5.04200    2.57730    3.58470    3.66750
 1198080.00000   71.98360  140.07500   39.66350    0.11100    4.90790    2.57760    3.60380    3.74750
 1198140.00000   70.12910  132.22830   38.40750    0.11090    5.10330    2.57830    3.59700    3.59490
 1198200.00000   68.31620  128.82700   34.24820    0.10200    5.00050    2.58090    3.98750    4.17570
 1198260.00000   66.76490  127.22910   30.51340    0.09000    5.17300    2.58790    4.56050    4.80140
 1198320.00000   64.96040  126.59300   26.75460    0.08050    5.29520    2.59300    4.99140    5.34930
 1198380.00000   63.63050  123.14780   25.04540    0.07410    5.60650    2.60100    5.76500    5.82440
 1198440.00000   62.06440  121.19710   23.27700    0.06820    5.72390    2.60390    6.22800    6.28120
 1198500.00000   61.41570  120.75890   22.41910    0.06640    5.91740    2.60560    6.56740    6.82930
 1198560.00000   60.68660  121.40870   21.03230    0.06770    6.22050    2.60290    6.74460    7.14860
 1198620.00000   61.28590  121.95570   20.70400    0.06950    6.39930    2.60000    6.87390    7.08670
 1198680.00000   62.25410  123.78250   21.34600    0.06710    6.48880    2.60250    6.88840    6.95380
 1198740.00000   63.08260  123.33290   21.62660    0.06540    6.61250    2.60730    6.96240    7.00300
 1198800.00000   63.12210  122.48220   22.02240    0.06520    6.71400    2.61120    7.15300    7.49220
 1198860.00000   61.98260  123.18410   21.80460    0.06640    6.81830    2.61140    7.30490    7.55960
 1198920.00000   61.94170  122.67490   22.25310    0.06340    6.90080    2.61310    7.44640    7.48390
 1198980.00000   62.15540  122.78900   22.56280    0.06340    6.84680    2.61410    7.49910    7.53610
 1199040.00000   62.54880  122.66580   22.05700    0.06590    6.81390    2.61530    7.49370    7.67180
 1199100.00000   62.22800  122.12870   22.36440    0.06510    6.91860    2.61180    7.35560    7.44250
 1199160.00000   61.25210  121.12760   22.08800    0.06360    6.78470    2.60960    7.19790    7.24860
 1199220.00000   60.99820  122.19360   21.58190    0.06230    6.74950    2.60840    7.11830    7.25260
 1199280.00000   61.58980  125.60480   20.98140    0.06340    6.64450    2.60410    6.80580    7.12300
 1199340.00000   63.10800  128.71590   21.42310    0.06650    6.45660    2.60300    6.51970    6.80910
 1199400.00000   64.84760  130.10310   23.59440    0.07120    6.41360    2.59920    6.16920    6.22870
 1199460.00000   65.81360  129.52280   25.23570    0.07440    6.26840    2.60060    6.07180    6.01720
 1199520.00000   64.62410  128.88969   25.54540    0.07510    6.13860    2.60400    6.00580    6.14970
 1199580.00000   63.95210  128.30119   24.83450    0.07530    6.03860    2.60140    5.89300    6.08370
 1199640.00000   64.35470  128.41600   24.02800    0.07250    5.90880    2.60260    5.81320    5.78410
 1199700.00000   65.12540  129.01360   23.24830    0.07400    5.81670    2.59980    5.56020    5.34730
 1199760.00000   65.38000  129.79710   23.43740    0.07380    5.60330    2.60270    5.40410    5.54700
 1199820.00000   65.88060  131.44940   24.15100    0.07820    5.54800    2.60390    5.18680    5.30840
