~Version ---------------------------------------------------
VERS.   2.0 : CWLS log ASCII Standard -VERSION 2.0
WRAP.    NO : One line per depth step
DLM . SPACE : Column Data Section Delimiter
~Well ------------------------------------------------------
STRT.0.1 in          78840.00000 : START DEPTH
STOP.0.1 in        1388160.00000 : STOP DEPTH
STEP.0.1 in             60.00000 : STEP
NULL.                    -999.25 : NULL VALUE
COMP.               STATOILHYDRO : COMPANY
WELL.                   15/9-F-4 : WELL
FLD .                      VOLVE : FIELD
LOC .                            : LOCATION
PROV.                            : PROVINCE
CNTY.                            : COUNTY
STAT.                            : STATE
CTRY.                            : COUNTRY
SRVC.    CROCKER DATA PROCESSING : SERVICE COMPANY
DATE. 2009-02-18 14:26:33.389000 : DATE
UWI .                            : UNIQUE WELL ID
API .                            : API NUMBER
~Curve Information -----------------------------------------
DEPTH.0.1 in       : 
DT   .us/ft        : 
DTS  .us/ft        : 
GR   .API          : 
NPHI .v/v_decimal  : 
RD   .UNKNOWN      : 
RHOB .g/cm3        : 
RS   .UNKNOWN      : 
RT   .ohm.m        : 
~Params ----------------------------------------------------
PROD   .                           PETROLOG : 
PROG   .               ['PETROLOG-TO-DLIS'] : 
RUN    .                                 [] : 
DESCENT.                                 [] : 
VERSION.                              10.00 : 
LINEAGE.         Python-converted from DLIS : 
ORFILE . WLC_PETRO_COMPUTED_INPUT_1(1).DLIS : 
~Other -----------------------------------------------------
~ASCII -----------------------------------------------------
# ...
 1115640.00000   62.03130  123.56410    8.36890    0.08480    5.59900    2.56030    5.04840    5.22700
 1115700.00000   61.25210  124.45790    8.21530    0.08420    5.77070    2.55910    4.85190    5.01770
 1115760.00000   60.70210  121.82800    7.41560    0.08250    5.77350    2.55970    4.93060    4.97950
 1115820.00000   60.03780  118.36550    7.28170    0.08770    5.76930    2.57780    5.19870    5.23160
 1115880.00000   60.18660  117.63940    6.93850    0.07860    5.70970    2.58770    5.51680    5.46130
 1115940.00000   61.17870  120.05550    7.14120    0.07140    5.67380    2.59920    5.68200    5.61670
 1116000.00000   61.15340  119.92110    7.91110    0.06950    5.76540    2.60260    6.01440    5.97960
 1116060.00000   60.21760  117.16950    9.18560    0.07520    5.84250    2.60620    6.21790    5.93870
 1116120.00000   59.20080  114.87580    9.86920    0.06930    5.75720    2.60440    6.45480    6.23260
 1116180.00000   58.93850  114.19200    9.96760    0.06650    6.11760    2.59820    6.84320    6.48120
 1116240.00000   59.18530  116.18050    9.37870    0.06870    5.91480    2.59060    6.94280    6.60720
 1116300.00000   60.35940  120.19910   10.21870    0.06370    5.84940    2.58040    6.64950    6.67600
 1116360.00000   61.95860  124.31130   10.92100    0.07240    5.75510    2.58280    6.45140    6.25960
 1116420.00000   63.09180  126.64210   12.81100    0.07580    5.51920    2.57820    6.05620    6.17880
 1116480.00000   64.95410  129.07480   14.27780    0.07230    5.19290    2.56990    5.55870    6.15980
 1116540.00000   66.19230  129.45410   16.65330    0.08040    5.44640    2.56650    5.52280    5.46690
 1116600.00000   66.19930  130.91299   18.10220    0.08220    5.01850    2.56360    4.85410    4.90420
 1116660.00000   65.29750  132.27670   17.91590    0.09120    4.83660    2.57280    4.60230    4.57370
 1116720.00000   65.04290  133.45151   16.31890    0.09030    4.62680    2.56110    4.45650    4.48060
 1116780.00000   65.06050  132.19659   14.47120    0.08500    4.53590    2.57150    4.40040    4.18850
 1116840.00000   66.81780  132.73151   14.39260    0.08700    4.31120    2.56790    4.36390    4.33660
 1116900.00000   69.34360  132.34419   15.06380    0.08600    4.28110    2.57310    4.04160    3.97110
 1116960.00000   69.78500  132.86320   16.72610    0.08710    4.30550    2.57310    3.61470    3.37120
 1117020.00000   68.76820  131.79080   16.95840    0.09090    3.98020    2.57890    3.56240    3.76620
 1117080.00000   67.96290  130.98550   18.52130    0.09740    3.93290    2.57750    3.46280    3.63380
 1117140.00000   66.42150  132.90520   18.37170    0.09730    4.09880    2.57770    3.28410    3.16670
 1117200.00000   65.88770  129.66260   17.26770    0.09660    4.05440    2.57330    3.61150    3.45610
 1117260.00000   65.21570  128.96220   15.38570    0.09860    3.81450    2.57330    4.08670    4.05530
 1117320.00000   65.93910  130.46339   14.09790    0.09550    3.96540    2.56370    3.91610    3.95910
 1117380.00000   67.51300  130.15669   14.31600    0.09930    3.99700    2.55260    3.90430    4.11890
 1117440.00000   67.66110  131.17740   14.07670    0.11050    3.94930    2.54670    3.80340    3.84270
 1117500.00000   68.00520  132.39751   14.27350    0.10960    3.99860    2.54250    3.58440    3.74360
 1117560.00000   67.65190  130.84801   14.69050    0.11050    3.90230    2.55340    3.68570    3.71530
 1117620.00000   66.42010  128.40770   14.84980    0.10270    3.96510    2.55180    3.48790    3.44870
 1117680.00000   65.20860  129.81441   13.69810    0.10380    3.63460    2.55050    3.75030    3.83210
 1117740.00000   66.66830  130.91220   12.17580    0.11040    3.61510    2.54040    3.46000    3.56860
 1117800.00000   67.25920  131.50301   10.70430    0.11200    3.53640    2.53700    3.21800    3.30160
 1117860.00000   67.70980  133.84129   10.78060    0.10760    3.49110    2.53100    3.06810    3.12380
 1117920.00000   67.83390  135.81020   12.44770    0.11460    3.44840    2.53300    3.05440    2.96500
 1117980.00000   68.53830  136.72279   13.76070    0.11690    3.35180    2.53590    3.07130    3.00030
 1118040.00000   68.93460  136.84821   15.69090    0.11500    3.40220    2.54660    3.18920    3.06390
 1118100.00000   71.25520  139.09810   15.49590    0.10490    3.34440    2.54810    3.23820    3.19510
 1118160.00000   71.94410  140.69830   16.19640    0.11020    3.26230    2.55260    3.24900    3.54470
 1118220.00000   72.18180  142.22740   15.35100    0.11720    3.45040    2.54380    3.08890    3.04910
 1118280.00000   71.74600  142.53340   16.69330    0.11930    3.40970    2.54400    3.02260    3.15180
 1118340.00000   70.46620  140.60690   18.18580    0.11960    3.53730    2.53950    2.93920    2.97210
 1118400.00000   68.81540  137.07190   19.36800    0.11790    3.58880    2.55290    2.95260    2.90830
 1118460.00000   66.19930  133.12579   19.46660    0.10960    3.75990    2.56000    3.13640    3.08670
 1118520.00000   65.17410  130.14461   17.42890    0.10370    3.78180    2.57070    3.84030    3.59900
 1118580.00000   64.17210  126.92010   15.83100    0.10020    3.69110    2.57010    3.91760    3.87540
 1118640.00000   63.22290  126.08600   12.85410    0.08700    3.78290    2.57700    4.07910    3.94090
 1118700.00000   64.68260  127.19590   10.95680    0.07750    3.83440    2.58110    4.29130    4.02590
 1118760.00000   66.28540  130.90691   10.70670    0.07910    3.68310    2.58810    4.40890    4.28460
 1118820.00000   69.99230  136.05949   12.21290    0.08590    3.68450    2.58750    4.05530    4.12450
 1118880.00000   71.72340  141.42059   13.92900    0.09080    3.58620    2.57520    3.73150    4.04330
 1118940.00000   72.61610  143.61459   15.48680    0.10050    3.43720    2.56530    3.08190    3.36720
 1119000.00000   71.53230  141.31860   16.72770    0.10280    3.41120    2.56050    2.80740    2.92980
 1119060.00000   69.94930  138.68410   17.41330    0.10990    3.37090    2.55540    2.62320    2.59660
 1119120.00000   69.74620  139.15030   16.06920    0.11490    3.08990    2.55320    2.90370    2.85830
 1119180.00000   71.07400  139.80080   14.01260    0.10440    3.01470    2.53870    2.89870    2.79800
 1119240.00000   70.89350  140.48669   13.67590    0.11760    2.81500    2.53430    2.99510    3.14350
 1119300.00000   70.51550  141.90331   13.89040    0.12030    2.89870    2.52410    2.67870    2.63580
 1119360.00000   70.20530  144.80521   14.35120    0.11700    2.87210    2.52500    2.60410    2.45470
 1119420.00000   71.86370  148.92960   13.30550    0.11540    2.68560    2.51960    2.63260    2.62940
 1119480.00000   74.10260  153.42860   14.25990    0.13280    2.62030    2.51430    2.64480    2.62260
 1119540.00000   74.28100  154.66541   15.85120    0.13400    2.64310    2.51480    2.38970    2.39440
 1119600.00000   72.51740  150.95880   18.05360    0.12660    2.65690    2.52140    2.30880    2.27710
 1119660.00000   71.34400  144.44260   18.04920    0.13810    2.59850    2.51810    2.33690    2.24510
 1119720.00000   70.54090  144.49400   16.07500    0.13420    2.52330    2.51440    2.45390    2.40330
 1119780.00000   70.52400  143.24590   13.69330    0.13670    2.49540    2.51240    2.46680    2.47820
 1119840.00000   70.05650  142.09370   12.76710    0.13370    2.48160    2.51960    2.40500    2.41580
 1119900.00000   69.85970  140.97861   13.62770    0.13040    2.54280    2.52570    2.37700    2.36870
 1119960.00000   69.90910  140.97780   14.78570    0.12840    2.50220    2.52220    2.42880    2.39300
 1120020.00000   70.11430  139.67529   15.12700    0.13530    2.46190    2.52140    2.55230    2.47120
 1120080.00000   70.28630  137.47000   15.10420    0.12920    2.43580    2.51760    2.57690    2.47820
 1120140.00000   70.34420  136.83760   14.27840    0.12990    2.47540    2.52370    2.58930    2.43410
 1120200.00000   70.94350  136.99631   13.15010    0.12440    2.42020    2.52860    2.63080    2.50040
 1120260.00000   71.78830  137.86740   12.99130    0.13520    2.34370    2.52050    2.56520    2.55030
