~Version ---------------------------------------------------
VERS.   2.0 : CWLS log ASCII Standard -VERSION 2.0
WRAP.    NO : One line per depth step
DLM . SPACE : Column Data Section Delimiter
~Well ------------------------------------------------------
STRT.0.1 in          78840.00000 : START DEPTH
STOP.0.1 in        1388160.00000 : STOP DEPTH
STEP.0.1 in             60.00000 : STEP
NULL.                    -999.25 : NULL VALUE
COMP.               STATOILHYDRO : COMPANY
WELL.                   15/9-F-4 : WELL
FLD .                      VOLVE : FIELD
LOC .                            : LOCATION
PROV.                            : PROVINCE
CNTY.                            : COUNTY
STAT.                            : STATE
CTRY.                            : COUNTRY
SRVC.    CROCKER DATA PROCESSING : SERVICE COMPANY
DATE. 2009-02-18 14:26:33.389000 : DATE
UWI .                            : UNIQUE WELL ID
API .                            : API NUMBER
~Curve Information -----------------------------------------
DEPTH.0.1 in       : 
DT   .us/ft        : 
DTS  .us/ft        : 
GR   .API          : 
NPHI .v/v_decimal  : 
RD   .UNKNOWN      : 
RHOB .g/cm3        : 
RS   .UNKNOWN      : 
RT   .ohm.m        : 
~Params ----------------------------------------------------
PROD   .                           PETROLOG : 
PROG   .               ['PETROLOG-TO-DLIS'] : 
RUN    .                                 [] : 
DESCENT.                                 [] : 
VERSION.                              10.00 : 
LINEAGE.         Python-converted from DLIS : 
ORFILE . WLC_PETRO_COMPUTED_INPUT_1(1).DLIS : 
~Other -----------------------------------------------------
~ASCII -----------------------------------------------------
# ...
 1335600.00000  103.31730  167.85760   33.13890    0.38600   14.50530    1.80950   22.50240   43.61440
 1335660.00000   97.96660  164.86850   26.09250    0.32110   14.77490    2.07100   12.60710   26.51870
 1335720.00000   91.63160  158.78670   21.46150    0.25740   14.20280    2.15130    8.43310   12.32030
 1335780.00000   85.70990  155.00760   18.36470    0.24200   13.54220    2.16040    8.18310   10.39440
 1335840.00000   83.09450  152.96930   15.36620    0.21320   13.02600    2.16700    9.58110   12.32200
 1335900.00000   84.37080  153.09470   12.59400    0.19190   12.94560    2.18770   10.43630   13.61710
 1335960.00000   88.51000  154.55130   11.37220    0.20220   12.85770    2.18910   11.01350   13.66860
 1336020.00000   88.28080  153.83211   11.83270    0.21060   12.61760    2.18150   11.42460   13.32320
 1336080.00000   89.65370  154.05870   12.96030    0.20300   12.00980    2.15910   11.93630   12.05030
 1336140.00000   92.25920  152.21220   15.23270    0.18380   11.54640    2.16250   12.91270   13.11810
 1336200.00000   90.79820  150.08470   16.87160    0.19750   12.50760    2.17460   15.03210   14.07350
 1336260.00000   89.40480  147.95720   18.02350    0.18650   12.13960    2.19980   16.10030   14.98360
 1336320.00000   89.04240  145.93550   17.59010    0.17590   12.00190    2.20570   15.95470   15.08250
 1336380.00000   87.48400  144.77650   17.25680    0.19270   11.96720    2.20460   14.59200   14.27040
 1336440.00000   85.84100  145.16341   16.99610    0.19860   11.66820    2.19950   13.75340   14.64540
 1336500.00000   83.63750  145.23280   17.30610    0.19140   11.70710    2.20390   13.51870   14.61540
 1336560.00000   84.65360  144.30060   18.62900    0.18330   11.47350    2.21190   12.83460   14.61570
 1336620.00000   84.53940  142.99960   19.03360    0.17610   11.21130    2.21690   11.35740   13.20570
 1336680.00000   83.77290  141.89200   18.20640    0.17360   11.44340    2.22400   11.82220   12.13540
 1336740.00000   80.49330  140.87210   16.82900    0.15720   10.72820    2.23110   11.93290   12.20070
 1336800.00000   80.73370  139.65871   15.47070    0.15450   10.53820    2.24290   11.87340   12.20900
 1336860.00000   82.74200  138.22549   15.74270    0.15210   10.22760    2.24780   11.15090   12.42350
 1336920.00000   82.67640  137.48061   17.62870    0.15810   10.35980    2.25790    9.95760   11.87500
 1336980.00000   82.87380  138.59570   18.77620    0.15720   10.26800    2.26910    9.09640   10.90680
 1337040.00000   83.71930  138.22630   19.33730    0.15740   10.35020    2.28060    7.91750    9.54330
 1337100.00000   84.20160  137.59320   19.95000    0.13770    9.67050    2.27620    7.92810    9.15860
 1337160.00000   82.99580  137.13680   20.12610    0.14330    9.40040    2.27110    8.71730    9.30800
 1337220.00000   82.30690  137.60300   20.80490    0.14750    9.04520    2.26590    9.09170    9.26450
 1337280.00000   81.87180  138.09480   20.86550    0.13850    8.53760    2.27630    9.26910    9.14010
 1337340.00000   81.63490  138.09480   21.03270    0.14540    7.97760    2.27980    8.95050    8.97950
 1337400.00000   82.22510  137.98900   20.65640    0.14320    7.38600    2.28850    8.79760    8.71350
 1337460.00000   81.95360  137.68150   20.40130    0.13380    6.86070    2.27900    8.58350    8.34370
 1337520.00000   81.45440  137.79640   21.44760    0.13090    6.53810    2.25740    8.42080    7.91270
 1337580.00000   82.36540  138.39400   22.00330    0.14850    6.18100    2.23290    7.94440    7.74890
 1337640.00000   83.61280  138.80730   22.08850    0.16310    6.11230    2.23580    7.22200    6.83150
 1337700.00000   84.90890  139.55521   21.76520    0.17400    5.93250    2.25680    6.35510    6.03470
 1337760.00000   85.56460  140.55630   23.05440    0.16320    5.51720    2.27960    5.45300    5.58460
 1337820.00000   85.95950  141.39410   23.70560    0.16060    5.00240    2.27460    4.81110    5.31290
 1337880.00000   87.15680  144.70779   23.27870    0.17480    4.88120    2.25220    3.85470    4.09580
 1337940.00000   87.67370  147.23950   23.23170    0.19990    4.74970    2.22420    4.08500    4.26500
 1338000.00000   88.27310  149.32240   23.58640    0.20990    4.85860    2.22350    4.07210    3.96110
 1338060.00000   88.67360  150.56149   25.78840    0.20540    4.68850    2.22790    4.22220    4.10140
 1338120.00000   88.09260  151.39700   24.92910    0.19140    4.29210    2.22360    4.39210    4.78200
 1338180.00000   88.78920  152.54840   23.83510    0.19860    4.25460    2.19850    4.52970    4.93670
 1338240.00000   89.56280  152.78419   23.79880    0.20670    4.28610    2.19120    4.71130    4.83470
 1338300.00000   91.79240  151.54510   23.37040    0.20170    4.21170    2.20800    4.70170    4.76870
 1338360.00000   91.27420  150.81531   23.09600    0.20930    4.05610    2.22620    4.66460    4.84330
 1338420.00000   89.47750  150.07719   21.39900    0.20740    3.88400    2.23860    4.50790    4.87570
 1338480.00000   87.89370  149.50529   22.98070    0.19860    3.96920    2.24100    4.52510    4.66420
 1338540.00000   86.89450  148.57370   24.86060    0.18120    3.84980    2.24510    4.50640    4.63850
 1338600.00000   88.04390  148.36369   26.86750    0.19160    3.86610    2.22620    4.46500    4.56190
 1338660.00000   89.47890  150.14220   26.17770    0.21820    3.84360    2.20480    4.41390    4.62340
 1338720.00000   90.59650  153.66510   23.82150    0.20830    3.73270    2.19990    4.19960    4.77090
 1338780.00000   92.27550  154.04131   20.15130    0.20020    3.52110    2.20440    3.83070    4.59120
 1338840.00000   90.61770  152.40570   20.86760    0.20470    3.63940    2.21750    3.55230    3.90160
 1338900.00000   88.08900  150.56900   22.23980    0.20050    3.76970    2.23160    3.51760    3.52180
 1338960.00000   84.53720  149.71680   24.68460    0.20030    3.76220    2.25320    3.48220    3.46820
 1339020.00000   82.96410  150.06129   24.69690    0.19000    3.30090    2.25370    3.49270    4.11650
 1339080.00000   84.72270  152.22430   24.93930    0.20440    3.31150    2.24250    3.43080    4.22830
 1339140.00000   88.91480  153.99831   25.92220    0.19770    3.46930    2.22890    3.26180    3.95560
 1339200.00000   90.52670  153.85770   26.42080    0.21110    3.63450    2.25480    2.78810    3.30870
 1339260.00000   87.10400  151.68941   25.95960    0.19210    3.39800    2.28350    2.64320    2.97750
 1339320.00000   83.56200  144.47360   26.92020    0.18510    3.29200    2.30670    2.70330    2.87620
 1339380.00000   82.86470  140.26540   27.88260    0.18800    2.88350    2.29410    3.09780    3.37320
 1339440.00000   82.60300  139.56351   29.59700    0.16700    2.67920    2.27270    3.24340    3.73960
 1339500.00000   83.15230  140.39000   29.63640    0.17770    2.84290    2.26070    3.15740    3.32580
 1339560.00000   82.89710  140.37869   29.00740    0.18930    2.78110    2.25160    2.97660    3.16080
 1339620.00000   81.74840  138.24370   29.21560    0.18480    2.67720    2.26070    2.85180    3.09960
 1339680.00000   81.35640  136.50070   27.86930    0.18310    2.58220    2.27140    2.71470    2.93590
 1339740.00000   82.13410  132.41260   25.71880    0.15140    2.52590    2.28700    2.65860    2.76290
 1339800.00000   81.31400  128.96831   24.14290    0.16050    2.37030    2.29490    2.88700    2.84500
 1339860.00000   79.84240  128.58450   22.80280    0.16980    2.34450    2.31290    2.79070    2.80520
 1339920.00000   75.46910  131.29221   23.33380    0.15220    2.29370    2.32580    2.70260    2.75340
 1339980.00000   72.90520  133.86780   21.76460    0.15940    2.16690    2.33870    2.49880    2.97960
 1340040.00000   74.97340  135.58960   22.37550    0.14500    1.94260    2.34280    2.21930    3.34570
 1340100.00000   76.48880  135.44749   23.28380    0.14080    1.97250    2.35420    2.14560    2.84350
 1340160.00000   74.99460  134.58780   25.07690    0.13380    1.81620    2.36250    2.11750    2.58090
 1340220.00000   74.86900  135.44901   25.25190    0.13330    1.89320    2.36760    2.18160    2.29640
