~Version ---------------------------------------------------
VERS.   2.0 : CWLS log ASCII Standard -VERSION 2.0
WRAP.    NO : One line per depth step
DLM . SPACE : Column Data Section Delimiter
~Well ------------------------------------------------------
STRT.0.1 in          78840.00000 : START DEPTH
STOP.0.1 in        1388160.00000 : STOP DEPTH
STEP.0.1 in             60.00000 : STEP
NULL.                    -999.25 : NULL VALUE
COMP.               STATOILHYDRO : COMPANY
WELL.                   15/9-F-4 : WELL
FLD .                      VOLVE : FIELD
LOC .                            : LOCATION
PROV.                            : PROVINCE
CNTY.                            : COUNTY
STAT.                            : STATE
CTRY.                            : COUNTRY
SRVC.    CROCKER DATA PROCESSING : SERVICE COMPANY
DATE. 2009-02-18 14:26:33.389000 : DATE
UWI .                            : UNIQUE WELL ID
API .                            : API NUMBER
~Curve Information -----------------------------------------
DEPTH.0.1 in       : 
DT   .us/ft        : 
DTS  .us/ft        : 
GR   .API          : 
NPHI .v/v_decimal  : 
RD   .UNKNOWN      : 
RHOB .g/cm3        : 
RS   .UNKNOWN      : 
RT   .ohm.m        : 
~Params ----------------------------------------------------
PROD   .                           PETROLOG : 
PROG   .               ['PETROLOG-TO-DLIS'] : 
RUN    .                                 [] : 
DESCENT.                                 [] : 
VERSION.                              10.00 : 
LINEAGE.         Python-converted from DLIS : 
ORFILE . WLC_PETRO_COMPUTED_INPUT_1(1).DLIS : 
~Other -----------------------------------------------------
~ASCII -----------------------------------------------------
# ...
 1354320.00000   68.90070  140.63181   64.04470    0.14130    3.26410    2.58770    3.88710    3.72930
 1354380.00000   70.27080  144.35040   62.26420    0.13170    3.20010    2.59710    3.91210    3.83910
 1354440.00000   72.13520  139.83400   60.26330    0.12680    3.10440    2.58830    3.97570    3.99000
 1354500.00000   74.23160  136.06700   56.62750    0.12230    3.08730    2.56620    4.04190    3.92870
 1354560.00000   71.62120  129.79480   51.26130    0.10780    3.00540    2.53300    4.05410    3.95880
 1354620.00000   70.02680  129.44580   46.73300    0.10350    2.94200    2.52700    3.90680    3.88400
 1354680.00000   73.57790  131.60800   41.40100    0.10780    2.83550    2.50390    3.22800    3.30590
 1354740.00000   75.21880  133.40160   37.95090    0.09840    2.64140    2.49860    2.45190    2.73960
 1354800.00000   75.94720  134.70110   34.26230    0.10600    2.77940    2.47090    1.75870    1.78910
 1354860.00000   75.51430  132.78059   32.57590    0.10340    2.52620    2.48220    1.50380    1.55060
 1354920.00000   76.48100  129.00610   31.48810    0.10630    2.47870    2.48160    1.44290    1.57510
 1354980.00000   75.10030  129.38831   31.36880    0.11020    2.39170    2.49450    1.51620    1.69370
 1355040.00000   72.05770  124.92180   30.26280    0.10580    2.25850    2.49050    1.59210    1.76140
 1355100.00000   71.36240  118.57100   29.40890    0.10220    2.17070    2.50850    1.93760    1.90760
 1355160.00000   72.84740  115.05330   30.40640    0.10360    2.06350    2.52780    2.21070    1.99950
 1355220.00000   73.09070  125.43700   36.02050    0.09960    1.92900    2.54810    2.74110    2.44930
 1355280.00000   71.49350  126.57630   40.90920    0.09740    1.96400    2.55890    2.95240    2.66600
 1355340.00000   71.75400  126.81210   45.85980    0.10050    2.03920    2.56350    2.92200    2.65350
 1355400.00000   69.32720  134.14349   45.43450    0.10080    2.10440    2.55710    2.94200    2.71080
 1355460.00000   68.56630  138.85030   44.17310    0.10780    2.17300    2.54890    2.74030    2.74060
 1355520.00000   71.03640  135.59109   40.28350    0.10830    2.27800    2.53930    2.50550    2.59320
 1355580.00000   74.57640  126.25600   36.33970    0.10220    2.51510    2.51990    2.13180    1.99250
 1355640.00000   76.28140  121.39350   31.85930    0.10310    2.57300    2.49930    1.95270    1.79430
 1355700.00000   73.59420  123.46520   29.49140    0.10010    2.48170    2.48150    1.87290    1.83120
 1355760.00000   73.55750  121.67010   29.67520    0.10310    2.36890    2.48920    1.75780    1.89490
 1355820.00000   70.84480  118.45310   31.22530    0.10040    2.48520    2.51220    1.93370    2.17060
 1355880.00000   71.15580  116.73210   34.75700    0.09820    2.57670    2.51640    2.20370    2.13180
 1355940.00000   70.29340  118.59970   39.36790    0.09260    2.54650    2.52560    2.38350    2.10840
 1356000.00000   68.13420  123.37070   47.75940    0.10020    2.46530    2.53400    2.52300    2.33940
 1356060.00000   65.58450  124.21160   53.90950    0.10040    2.47890    2.55520    2.64670    2.40670
 1356120.00000   65.33060  122.52530   57.31970    0.10120    2.42640    2.56940    2.98020    2.84640
 1356180.00000   66.02090  121.97000   55.67120    0.10090    2.55630    2.56730    3.05480    2.92040
 1356240.00000   67.65330  121.10270   49.10980    0.09620    2.55180    2.55160    3.10650    2.93920
 1356300.00000   69.04880  122.79800   42.39810    0.09200    2.64650    2.53370    2.96260    2.88050
 1356360.00000   70.39280  123.27330   38.08840    0.09080    2.94260    2.51160    2.74960    2.41780
 1356420.00000   70.50070  123.94940   35.95300    0.08730    2.78260    2.50420    2.54220    2.47390
 1356480.00000   72.34820  123.74700   36.21610    0.09080    2.74680    2.50130    2.49770    2.58860
 1356540.00000   72.89110  122.62880   34.59360    0.09090    2.74230    2.50910    2.48950    2.66560
 1356600.00000   67.64280  119.71860   34.21730    0.09150    2.84380    2.52630    2.41720    2.35160
 1356660.00000   65.60000  119.11870   34.25490    0.09580    2.81030    2.53900    2.39990    2.33210
 1356720.00000   65.83480  122.91890   37.38820    0.08310    2.90260    2.56040    2.82830    2.67490
 1356780.00000   69.42400  120.16740   39.50170    0.07950    2.83100    2.56100    2.98660    2.99610
 1356840.00000   69.39430  118.93140   41.45420    0.08060    2.75650    2.57070    3.25000    3.06640
 1356900.00000   70.96540  122.40670   42.82690    0.08040    2.76720    2.56860    3.35390    3.17880
 1356960.00000   68.49670  126.18050   43.62950    0.08520    2.84710    2.57450    3.36880    3.31200
 1357020.00000   68.27810  124.46920   44.47820    0.09110    2.91130    2.57490    3.45110    3.43990
 1357080.00000   71.10080  124.99430   42.83780    0.09850    2.99140    2.57510    3.44010    3.46250
 1357140.00000   73.89030  124.67320   44.88690    0.11510    3.03650    2.57110    3.42580    3.52280
 1357200.00000   75.01080  128.84970   46.86040    0.12230    3.06790    2.56100    3.54030    3.62620
 1357260.00000   71.80100  132.42470   50.74520    0.13890    3.15280    2.55490    3.57670    3.68740
 1357320.00000   68.35000  132.93469   55.38690    0.15260    3.20700    2.55670    3.51750    3.59730
 1357380.00000   68.71180  132.85390   59.03190    0.17420    3.26230    2.56010    3.41230    3.50420
 1357440.00000   70.63400  131.51891   60.86280    0.16050    3.26360    2.57020    3.40300    3.53260
 1357500.00000   73.57650  130.80490   59.95670    0.16280    3.25100    2.56030    3.41370    3.55530
 1357560.00000   72.31860  128.69630   56.76920    0.15150    3.22030    2.56040    3.28970    3.48690
 1357620.00000   69.86890  128.02840   53.71790    0.14760    3.19820    2.54650    3.11500    3.30550
 1357680.00000   71.46960  128.40840   50.63210    0.13480    3.14680    2.55300    2.95680    3.09790
 1357740.00000   72.02310  130.79961   49.07970    0.13580    3.12830    2.55330    2.86250    2.97550
 1357800.00000   69.60660  132.03641   49.49760    0.13670    3.19410    2.55690    2.85740    2.93400
 1357860.00000   70.92660  131.79390   49.88090    0.13400    3.11580    2.56740    2.94300    3.04920
 1357920.00000   71.64160  134.37621   51.55820    0.12990    3.08340    2.57250    2.99040    3.09710
 1357980.00000   72.64860  134.14650   53.20940    0.13960    3.13670    2.58290    3.04990    3.06930
 1358040.00000   71.44280  133.18930   56.05980    0.13960    3.09360    2.57630    3.12570    3.13470
 1358100.00000   70.65510  133.04800   56.61810    0.13620    3.17390    2.58590    3.19380    3.10230
 1358160.00000   70.17990  132.45950   57.08190    0.14730    3.12490    2.58760    3.24640    3.15890
 1358220.00000   69.99020  132.30991   56.41300    0.14750    3.00800    2.59690    3.23600    3.21060
 1358280.00000   70.07550  132.28419   56.63040    0.15110    3.08840    2.57870    3.18250    3.16840
 1358340.00000   72.71560  133.27840   55.77540    0.14550    3.06980    2.56430    3.14750    3.17410
 1358400.00000   72.86220  134.79849   55.23610    0.14160    3.04350    2.54780    3.06840    3.11220
 1358460.00000   71.91030  135.05240   54.52170    0.13410    3.11580    2.53870    2.94800    3.00320
 1358520.00000   70.35830  133.91760   52.55390    0.12800    3.08020    2.53430    2.86130    2.94620
 1358580.00000   68.74490  131.81580   51.24140    0.11890    3.11330    2.53510    2.83280    2.94810
 1358640.00000   70.08190  129.14360   52.23860    0.11290    3.11620    2.54070    2.80980    2.95420
 1358700.00000   71.11630  127.32510   55.04520    0.11530    3.23610    2.55780    2.88960    2.93960
 1358760.00000   71.53160  126.97370   57.52400    0.11580    3.12380    2.58030    2.94400    3.03480
 1358820.00000   69.54810  127.31750   58.97880    0.11890    3.13430    2.61560    3.01270    3.11720
 1358880.00000   69.58050  128.89200   60.13190    0.12360    3.12630    2.62720    3.05850    3.19850
 1358940.00000   69.09610  131.33600   58.96890    0.11660    3.16190    2.61780    3.07090    3.21080
