~Version ---------------------------------------------------
VERS.   2.0 : CWLS log ASCII Standard -VERSION 2.0
WRAP.    NO : One line per depth step
DLM . SPACE : Column Data Section Delimiter
~Well ------------------------------------------------------
STRT.0.1 in          78840.00000 : START DEPTH
STOP.0.1 in        1388160.00000 : STOP DEPTH
STEP.0.1 in             60.00000 : STEP
NULL.                    -999.25 : NULL VALUE
COMP.               STATOILHYDRO : COMPANY
WELL.                   15/9-F-4 : WELL
FLD .                      VOLVE : FIELD
LOC .                            : LOCATION
PROV.                            : PROVINCE
CNTY.                            : COUNTY
STAT.                            : STATE
CTRY.                            : COUNTRY
SRVC.    CROCKER DATA PROCESSING : SERVICE COMPANY
DATE. 2009-02-18 14:26:33.389000 : DATE
UWI .                            : UNIQUE WELL ID
API .                            : API NUMBER
~Curve Information -----------------------------------------
DEPTH.0.1 in       : 
DT   .us/ft        : 
DTS  .us/ft        : 
GR   .API          : 
NPHI .v/v_decimal  : 
RD   .UNKNOWN      : 
RHOB .g/cm3        : 
RS   .UNKNOWN      : 
RT   .ohm.m        : 
~Params ----------------------------------------------------
PROD   .                           PETROLOG : 
PROG   .               ['PETROLOG-TO-DLIS'] : 
RUN    .                                 [] : 
DESCENT.                                 [] : 
VERSION.                              10.00 : 
LINEAGE.         Python-converted from DLIS : 
ORFILE . WLC_PETRO_COMPUTED_INPUT_1(1).DLIS : 
~Other -----------------------------------------------------
~ASCII -----------------------------------------------------
# ...
 1078200.00000 -999.25000 -999.25000   46.83680 -999.25000 -999.25000 -999.25000 -999.25000 -999.25000
 1078260.00000 -999.25000 -999.25000   54.80700 -999.25000 -999.25000 -999.25000 -999.25000 -999.25000
 1078320.00000 -999.25000 -999.25000   62.06090 -999.25000 -999.25000 -999.25000 -999.25000 -999.25000
 1078380.00000 -999.25000 -999.25000   64.56840 -999.25000 -999.25000 -999.25000 -999.25000 -999.25000
 1078440.00000 -999.25000 -999.25000   56.47870 -999.25000 -999.25000 -999.25000 -999.25000 -999.25000
 1078500.00000 -999.25000 -999.25000   40.35900 -999.25000 -999.25000 -999.25000 -999.25000 -999.25000
 1078560.00000 -999.25000 -999.25000   28.50810 -999.25000 -999.25000 -999.25000 -999.25000 -999.25000
 1078620.00000 -999.25000 -999.25000   20.47810 -999.25000 -999.25000 -999.25000 -999.25000 -999.25000
 1078680.00000 -999.25000 -999.25000   20.77660 -999.25000 -999.25000 -999.25000 -999.25000 -999.25000
 1078740.00000 -999.25000 -999.25000   22.95580 -999.25000 -999.25000 -999.25000 -999.25000 -999.25000
 1078800.00000 -999.25000 -999.25000   25.82150 -999.25000 -999.25000 -999.25000 -999.25000 -999.25000
 1078860.00000 -999.25000 -999.25000   24.80650 -999.25000 -999.25000 -999.25000 -999.25000 -999.25000
 1078920.00000 -999.25000 -999.25000   23.13490 -999.25000 -999.25000 -999.25000 -999.25000 -999.25000
 1078980.00000 -999.25000 -999.25000   22.35870 -999.25000 -999.25000 -999.25000 -999.25000 -999.25000
 1079040.00000 -999.25000 -999.25000   22.86620 -999.25000 -999.25000 -999.25000 -999.25000 -999.25000
 1079100.00000 -999.25000 -999.25000   24.95580 -999.25000 -999.25000 -999.25000 -999.25000 -999.25000
 1079160.00000 -999.25000 -999.25000   24.74680 -999.25000 -999.25000 -999.25000 -999.25000 -999.25000
 1079220.00000 -999.25000 -999.25000   23.97070 -999.25000 -999.25000 -999.25000 -999.25000 -999.25000
 1079280.00000 -999.25000 -999.25000   24.06030    0.48410    0.19920    1.93670   29.38700 -999.25000
 1079340.00000 -999.25000 -999.25000   23.94080    0.48410    0.19920    1.93670   29.38700 -999.25000
 1079400.00000 -999.25000 -999.25000   25.43340    0.49070    0.19920    1.93670   29.38700 -999.25000
 1079460.00000 -999.25000 -999.25000   25.01550   -4.76110    0.19920    1.93670   29.38700 -999.25000
 1079520.00000 -999.25000 -999.25000   25.82150    0.47030    0.19920    1.93670   29.38700 -999.25000
 1079580.00000 -999.25000 -999.25000   26.68720    0.43180    0.19920    1.93670   29.38700 -999.25000
 1079640.00000 -999.25000 -999.25000   25.52300    0.39320    0.22200    1.93670   34.06120 -999.25000
 1079700.00000 -999.25000 -999.25000   23.13490    0.39170    0.14520    1.93670  138.60310 -999.25000
 1079760.00000 -999.25000 -999.25000   19.67210    0.39970    0.29970    1.93670 5000.00000 -999.25000
 1079820.00000 -999.25000 -999.25000   18.65720    0.45520    0.12860    1.93670   74.96500 -999.25000
 1079880.00000 -999.25000 -999.25000   19.67210    0.44250    0.10580    1.93670    2.02630 -999.25000
 1079940.00000 -999.25000 -999.25000   21.55270    0.43990    0.10000    1.93670    1.69570 -999.25000
 1080000.00000 -999.25000 -999.25000   23.73190    0.40810    0.11830    1.93670 5000.00000 -999.25000
 1080060.00000 -999.25000 -999.25000   23.13490    0.42400    0.10000    1.93670    4.68730 -999.25000
 1080120.00000 -999.25000 -999.25000   21.25420    0.43240    0.10000    1.93670   14.35510 -999.25000
 1080180.00000 -999.25000 -999.25000   18.17960    0.45980    0.10000    1.93670   17.50160 -999.25000
 1080240.00000 -999.25000 -999.25000   17.97060    0.39350    0.11860    2.05340 5000.00000 -999.25000
 1080300.00000 -999.25000 -999.25000   17.16460    0.36830    0.10000    2.08390 5000.00000 -999.25000
 1080360.00000 -999.25000 -999.25000   19.46320    0.37670    0.13900    2.20080 5000.00000 -999.25000
 1080420.00000 -999.25000 -999.25000   18.86610    0.35410    0.10000    2.20490  125.27530 -999.25000
 1080480.00000 -999.25000 -999.25000   20.35870    0.37360    0.10000    2.23780 5000.00000 -999.25000
 1080540.00000 -999.25000 -999.25000   22.74680    0.40330    0.21010    2.20180 5000.00000 -999.25000
 1080600.00000 -999.25000 -999.25000   26.41850    0.39920    0.30370    2.18840 5000.00000 -999.25000
 1080660.00000 -999.25000 -999.25000   27.70210    0.36670    0.19180    2.13410 5000.00000 -999.25000
 1080720.00000 -999.25000 -999.25000   25.31400    0.36970    0.10000    2.14050    9.04000 -999.25000
 1080780.00000 -999.25000 -999.25000   16.15300    0.35330    0.15740    2.15640 5000.00000 -999.25000
 1080840.00000 -999.25000 -999.25000   16.96210    0.37450    0.18160    2.17380 5000.00000 -999.25000
 1080900.00000 -999.25000 -999.25000   15.38100    0.35820    0.12210    2.18260  121.42410 -999.25000
 1080960.00000 -999.25000 -999.25000   11.99700    0.35150    0.12050    2.09640  328.97379 -999.25000
 1081020.00000 -999.25000 -999.25000    9.94730    0.33620    3.46340    2.07940 5000.00000 -999.25000
 1081080.00000 -999.25000 -999.25000   10.65090    0.34300    0.17360    2.05780   13.24290 -999.25000
 1081140.00000 -999.25000 -999.25000   12.50960    0.35320    0.10000    2.12100   20.42190 -999.25000
 1081200.00000 -999.25000 -999.25000   13.63960    0.35120    0.17400    2.09560    9.67010 -999.25000
 1081260.00000 -999.25000 -999.25000   13.19070    0.35210    0.16070    2.11610   32.26560 -999.25000
 1081320.00000 -999.25000 -999.25000   12.85130    0.35490    0.17130    2.15570    9.50580 -999.25000
 1081380.00000 -999.25000 -999.25000   13.61260    0.35700    0.11260    2.17130    6.56210 -999.25000
 1081440.00000 -999.25000 -999.25000   12.46320    0.35480    0.10000    2.18130   33.87390 -999.25000
 1081500.00000 -999.25000 -999.25000   11.59520    0.35700    0.10000    2.14490   11.58000 -999.25000
 1081560.00000 -999.25000 -999.25000    9.62770    0.34280    0.10000    2.18740   15.09330 -999.25000
 1081620.00000 -999.25000 -999.25000    9.71220    0.36920    0.10550    2.19190 5000.00000 -999.25000
 1081680.00000 -999.25000 -999.25000   10.14240    0.37680    0.10000    2.13070   28.19310 -999.25000
 1081740.00000 -999.25000 -999.25000   11.17760    0.39290    0.13620    2.03010   11.39990 -999.25000
 1081800.00000 -999.25000 -999.25000   11.00970    0.38730    0.10560    2.07420   18.03420 -999.25000
 1081860.00000 -999.25000 -999.25000   11.68610    0.36810    0.11500    2.06490    9.30940 -999.25000
 1081920.00000 -999.25000 -999.25000   12.29410    0.37110    0.11560    2.14610 5000.00000 -999.25000
 1081980.00000 -999.25000 -999.25000   13.45730    0.40760    0.10380    2.12560  302.79440 -999.25000
 1082040.00000 -999.25000 -999.25000   13.16900    0.37660    0.10000    2.18580 5000.00000 -999.25000
 1082100.00000 -999.25000 -999.25000   12.63500    0.37650    0.10000    2.19090  149.79150 -999.25000
 1082160.00000 -999.25000 -999.25000   11.88800    0.33620    0.12770    2.32690   87.14500 -999.25000
 1082220.00000 -999.25000 -999.25000   11.16890    0.33230    0.14760    2.36600 5000.00000 -999.25000
 1082280.00000 -999.25000 -999.25000   10.15980    0.36170    0.10000    2.34340 5000.00000 -999.25000
 1082340.00000 -999.25000 -999.25000   10.62970    0.40860    0.10000    2.23990   28.63670 -999.25000
 1082400.00000 -999.25000 -999.25000   11.48580    0.41200    0.10740    2.10790   16.07510 -999.25000
 1082460.00000 -999.25000 -999.25000   12.00150    0.38430    0.11850    2.15910 5000.00000 -999.25000
 1082520.00000 -999.25000 -999.25000   12.14090    0.40600    0.11660    2.00070 5000.00000 -999.25000
 1082580.00000 -999.25000 -999.25000   12.26310    0.40230    0.10620    1.97780 5000.00000 -999.25000
 1082640.00000 -999.25000 -999.25000   12.92340    0.40540    0.19150    1.95670 5000.00000 -999.25000
 1082700.00000 -999.25000 -999.25000   12.19480    0.38740    0.10000    2.06730 5000.00000 -999.25000
 1082760.00000   71.90320 -999.25000   12.37210    0.37990    0.12860    2.15290 5000.00000 -999.25000
 1082820.00000   80.88810 -999.25000   11.91650    0.35710    0.11930    2.24490 5000.00000 -999.25000
