~Version ---------------------------------------------------
VERS.   2.0 : CWLS log ASCII Standard -VERSION 2.0
WRAP.    NO : One line per depth step
DLM . SPACE : Column Data Section Delimiter
~Well ------------------------------------------------------
STRT.0.1 in          78840.00000 : START DEPTH
STOP.0.1 in        1388160.00000 : STOP DEPTH
STEP.0.1 in             60.00000 : STEP
NULL.                    -999.25 : NULL VALUE
COMP.               STATOILHYDRO : COMPANY
WELL.                   15/9-F-4 : WELL
FLD .                      VOLVE : FIELD
LOC .                            : LOCATION
PROV.                            : PROVINCE
CNTY.                            : COUNTY
STAT.                            : STATE
CTRY.                            : COUNTRY
SRVC.    CROCKER DATA PROCESSING : SERVICE COMPANY
DATE. 2009-02-18 14:26:33.389000 : DATE
UWI .                            : UNIQUE WELL ID
API .                            : API NUMBER
~Curve Information -----------------------------------------
DEPTH.0.1 in       : 
DT   .us/ft        : 
DTS  .us/ft        : 
GR   .API          : 
NPHI .v/v_decimal  : 
RD   .UNKNOWN      : 
RHOB .g/cm3        : 
RS   .UNKNOWN      : 
RT   .ohm.m        : 
~Params ----------------------------------------------------
PROD   .                           PETROLOG : 
PROG   .               ['PETROLOG-TO-DLIS'] : 
RUN    .                                 [] : 
DESCENT.                                 [] : 
VERSION.                              10.00 : 
LINEAGE.         Python-converted from DLIS : 
ORFILE . WLC_PETRO_COMPUTED_INPUT_1(1).DLIS : 
~Other -----------------------------------------------------
~ASCII -----------------------------------------------------
# ...
 1213920.00000   83.76090  163.49420   60.47300    0.19050    1.71020    2.49180    1.86860    2.09390
 1213980.00000   85.87000  164.55650   61.49660    0.18510    1.84520    2.49390    1.72790    1.64850
 1214040.00000   88.20820  166.95520   61.26270    0.19610    1.74770    2.48180    1.66990    1.70070
 1214100.00000   89.96330  173.04610   62.96410    0.19880    1.78010    2.48040    1.56020    1.47990
 1214160.00000   90.17490  172.11459   64.74610    0.21780    1.71070    2.47920    1.52970    1.49100
 1214220.00000   88.32810  176.13840   71.05400    0.21910    1.77270    2.48580    1.58570    1.57890
 1214280.00000   86.95230  170.79930   75.19560    0.21930    1.85800    2.48450    1.59940    1.60090
 1214340.00000   88.10030  171.62579   80.06660    0.22410    2.02420    2.49200    1.57870    1.45810
 1214400.00000   87.81970  168.89090   80.16050    0.22540    1.87910    2.49590    1.55550    1.56880
 1214460.00000   85.46380  153.30470   78.93350    0.22030    1.85100    2.52700    1.55260    2.02040
 1214520.00000   81.35920  134.78571   71.60000    0.21100    2.03980    2.55030    1.40450    1.65540
 1214580.00000   75.14760  130.97340   61.56970    0.17730    2.82960    2.58700    1.22410    1.00090
 1214640.00000   68.91200  131.29221   46.55720    0.13850    3.03580    2.59430    1.90180    1.83450
 1214700.00000   64.29550  132.20190   34.66130    0.11930    2.60460    2.59110    3.08550    4.08340
 1214760.00000   64.43930  130.13181   26.08610    0.10190    2.89570    2.58650    3.45470    3.93490
 1214820.00000   68.10460  132.86591   23.81540    0.09600    3.04260    2.59140    3.97250    4.13900
 1214880.00000   69.10520  134.87711   25.16000    0.09180    3.31920    2.60320    4.40190    4.39150
 1214940.00000   69.27660  134.96550   27.99810    0.09090    3.68970    2.61360    4.40310    4.37880
 1215000.00000   68.16810  135.59860   30.26840    0.09320    3.92550    2.61200    4.45690    5.09080
 1215060.00000   66.76630  137.61510   30.73030    0.09530    4.31230    2.61390    4.54000    5.05580
 1215120.00000   67.14490  141.47951   31.00890    0.09830    4.44020    2.60890    4.68880    5.01070
 1215180.00000   68.59680  141.03070   30.62520    0.10360    4.57380    2.60000    4.50830    4.57220
 1215240.00000   69.54030  139.91310   31.30360    0.09920    4.75610    2.60320    4.42290    4.64560
 1215300.00000   69.83440  138.38950   34.32900    0.09720    4.87180    2.60170    4.40450    4.55170
 1215360.00000   67.61600  133.39590   34.53480    0.10040    4.96150    2.61500    4.34840    4.54270
 1215420.00000   64.15800  132.59660   32.68190    0.09590    5.13980    2.61010    4.35830    4.41200
 1215480.00000   65.05140  133.51700   27.62320    0.09340    5.01860    2.61880    4.85510    5.27400
 1215540.00000   65.18320  133.92799   25.93420    0.08280    5.11040    2.62050    5.11560    5.04050
 1215600.00000   65.93000  133.24820   25.61940    0.08550    5.18480    2.61970    5.07090    5.45010
 1215660.00000   66.52020  129.90810   28.64970    0.09800    5.27180    2.60710    4.90850    5.21180
 1215720.00000   65.92790  127.99370   28.90830    0.09970    5.65870    2.59380    4.62350    4.43350
 1215780.00000   64.13190  127.76400   27.77300    0.07770    5.36080    2.58680    4.70640    4.94400
 1215840.00000   63.64040  126.19860   22.86150   -0.75760    5.36510    2.59160    4.97280    5.19780
 1215900.00000   64.02610  124.65280   21.10170   -1.59300    5.26650    2.59860    5.24100    5.36570
 1215960.00000   64.13190  124.75860   20.05460   -2.42830    5.22970    2.60760    5.48170    5.39040
 1216020.00000   63.14680  124.72230   19.69340    0.09310    5.16500    2.60700    5.80600    5.53070
 1216080.00000   61.67800  123.74700   17.88680    0.08550    5.00210    2.60500    6.02620    5.76160
 1216140.00000   61.15550  125.05090   17.45720    0.08560    4.95320    2.59850    6.17930    5.77020
 1216200.00000   62.95150  130.09770   18.12560    0.09140    4.79880    2.60920    6.23990    5.84410
 1216260.00000   63.76380  132.28349   20.85690    0.09080    4.41080    2.62090    5.98380    5.99960
 1216320.00000   64.55140  133.70840   23.63160    0.09520    4.31820    2.61620    5.76980    5.77020
 1216380.00000   65.37220  134.46460   26.01140    0.10230    4.05270    2.60390    5.25580    5.21670
 1216440.00000   67.17100  135.78450   28.88600    0.11370    3.89370    2.56790    4.69160    4.82660
 1216500.00000   71.19250  140.70509   32.48080    0.12930    3.62970    2.53750    3.86950    4.41020
 1216560.00000   75.57280  149.85130   38.32950    0.14380    3.46390    2.50520    3.09850    3.60960
 1216620.00000   78.74030  153.13020   44.43080    0.15280    3.35670    2.49650    2.51900    2.72990
 1216680.00000   80.93610  155.51990   52.37680    0.16290    2.97220    2.50220    2.28400    2.31510
 1216740.00000   80.07510  155.50020   57.26700    0.16570    2.70560    2.50070    2.14500    2.11360
 1216800.00000   79.75500  153.50490   58.42390    0.16830    2.44960    2.50230    2.07840    2.09890
 1216860.00000   79.69860  152.89220   58.59860    0.16360    2.29920    2.48720    2.02720    2.07790
 1216920.00000   80.56800  154.91389   58.94060    0.16030    2.18660    2.50560    2.01670    2.02870
 1216980.00000   81.03550  157.58009   61.27310    0.15950    2.13450    2.50030    2.00420    1.94620
 1217040.00000   81.10880  159.74390   60.66250    0.16150    2.06660    2.50760    1.99530    1.97690
 1217100.00000   81.10180  156.55040   60.83930    0.16510    2.03510    2.49400    1.94360    1.94880
 1217160.00000   81.78160  158.26010   60.44230    0.17190    1.98550    2.49190    1.94940    1.91830
 1217220.00000   81.29780  155.57950   61.70830    0.16790    1.99650    2.48930    1.87290    1.87090
 1217280.00000   81.50370  154.29750   59.09650    0.16890    1.94920    2.48200    1.91880    1.88360
 1217340.00000   82.05230  154.57021   56.55660    0.16150    1.95930    2.47890    1.88820    1.87980
 1217400.00000   81.46990  155.42390   53.30150    0.16050    1.96140    2.48050    1.96230    1.91380
 1217460.00000   80.99390  157.18201   54.35780    0.16060    1.94430    2.48590    1.97420    1.96690
 1217520.00000   80.55110  158.54420   55.69920    0.16050    1.95400    2.48880    1.99290    1.96080
 1217580.00000   80.64200  159.38811   58.32430    0.16260    1.91700    2.48160    1.99410    2.00050
 1217640.00000   81.45440  160.13530   59.71020    0.16730    1.93140    2.47390    1.96640    1.96760
 1217700.00000   82.24200  159.35780   61.68150    0.17310    1.92880    2.46840    1.92960    1.92200
 1217760.00000   82.84070  156.03810   61.89310    0.17560    1.92370    2.47030    1.87930    1.87890
 1217820.00000   82.98800  155.99361   61.23670    0.16770    1.90300    2.47080    1.84440    1.84460
 1217880.00000   82.63480  155.68680   61.54230    0.16680    1.90770    2.46950    1.84680    1.83090
 1217940.00000   82.14330  156.07291   61.78800    0.17010    1.88110    2.47040    1.87230    1.81850
 1218000.00000   82.57840  156.45290   63.21080    0.18050    1.85790    2.47200    1.87390    1.81140
 1218060.00000   83.03740  157.75990   63.92740    0.17460    1.85150    2.47260    1.87060    1.81920
 1218120.00000   83.13610  156.30110   64.40020    0.16380    1.83160    2.46890    1.87100    1.81880
 1218180.00000   83.39840  155.36040   64.90030    0.17480    1.81060    2.46700    1.85140    1.81740
 1218240.00000   83.29970  154.49010   63.83630    0.17790    1.79840    2.46970    1.81480    1.79370
 1218300.00000   82.91400  153.91060   62.04800    0.17770    1.77430    2.47140    1.77440    1.74960
 1218360.00000   82.58610  154.10400   60.93500    0.18570    1.75110    2.47100    1.73990    1.75990
 1218420.00000   82.85760  154.13879   60.92430    0.18110    1.70830    2.47010    1.71760    1.75260
 1218480.00000   83.62830  153.56689   62.12520    0.17230    1.73470    2.47290    1.65710    1.65160
 1218540.00000   83.80880  153.32280   62.86000    0.18340    1.76350    2.47620    1.61730    1.58110
