~Version ---------------------------------------------------
VERS.   2.0 : CWLS log ASCII Standard -VERSION 2.0
WRAP.    NO : One line per depth step
DLM . SPACE : Column Data Section Delimiter
~Well ------------------------------------------------------
STRT.0.1 in          78840.00000 : START DEPTH
STOP.0.1 in        1388160.00000 : STOP DEPTH
STEP.0.1 in             60.00000 : STEP
NULL.                    -999.25 : NULL VALUE
COMP.               STATOILHYDRO : COMPANY
WELL.                   15/9-F-4 : WELL
FLD .                      VOLVE : FIELD
LOC .                            : LOCATION
PROV.                            : PROVINCE
CNTY.                            : COUNTY
STAT.                            : STATE
CTRY.                            : COUNTRY
SRVC.    CROCKER DATA PROCESSING : SERVICE COMPANY
DATE. 2009-02-18 14:26:33.389000 : DATE
UWI .                            : UNIQUE WELL ID
API .                            : API NUMBER
~Curve Information -----------------------------------------
DEPTH.0.1 in       : 
DT   .us/ft        : 
DTS  .us/ft        : 
GR   .API          : 
NPHI .v/v_decimal  : 
RD   .UNKNOWN      : 
RHOB .g/cm3        : 
RS   .UNKNOWN      : 
RT   .ohm.m        : 
~Params ----------------------------------------------------
PROD   .                           PETROLOG : 
PROG   .               ['PETROLOG-TO-DLIS'] : 
RUN    .                                 [] : 
DESCENT.                                 [] : 
VERSION.                              10.00 : 
LINEAGE.         Python-converted from DLIS : 
ORFILE . WLC_PETRO_COMPUTED_INPUT_1(1).DLIS : 
~Other -----------------------------------------------------
~ASCII -----------------------------------------------------
# ...
 1096920.00000   70.62270  135.66890    6.37420    0.15170    2.09610    2.45590    1.91220    1.81600
 1096980.00000   70.31880  136.05490    7.10350    0.13800    2.08710    2.47120    2.03630    1.92190
 1097040.00000   69.61290  135.16570    7.31780    0.13490    2.12840    2.48940    2.18470    2.02700
 1097100.00000   68.56230  133.15300    7.42690    0.13130    2.18010    2.50180    2.40900    2.14290
 1097160.00000   67.19220  131.51740    8.04900    0.11680    2.26520    2.51110    2.68810    2.37720
 1097220.00000   66.16690  129.54849    7.77480    0.10900    2.36020    2.53180    2.94280    2.61520
 1097280.00000   65.60910  128.02769    8.31590    0.10090    2.40520    2.53500    3.08530    2.82030
 1097340.00000   65.05070  126.63000    7.30040    0.10030    2.44920    2.53050    3.15470    2.89530
 1097400.00000   64.16500  125.55790    7.31330    0.10800    2.45160    2.51100    3.11750    2.86700
 1097460.00000   63.90270  125.08350    6.91280    0.10440    2.41440    2.50920    2.89570    2.79170
 1097520.00000   64.07550  125.26020    6.74310    0.11050    2.37940    2.50660    2.78030    2.63220
 1097580.00000   65.00340  126.42070    6.79290    0.11670    2.32730    2.49930    2.63160    2.48940
 1097640.00000   66.47150  127.79270    6.55200    0.11840    2.38450    2.48840    2.51350    2.33150
 1097700.00000   67.23450  129.56810    7.05600    0.11940    2.29800    2.48800    2.42840    2.32000
 1097760.00000   67.91570  130.86909    6.85140    0.13180    2.19440    2.48890    2.30320    2.27060
 1097820.00000   68.87610  131.95030    6.84310    0.12940    2.05790    2.46830    2.06610    2.08310
 1097880.00000   69.85970  133.03220    6.50460    0.14290    1.93700    2.44450    1.78930    1.80820
 1097940.00000   70.55080  134.54390    6.81980    0.16000    1.81830    2.43440    1.62190    1.58180
 1098000.00000   72.41160  135.59860    6.94470    0.15540    1.79430    2.44770    1.59030    1.46680
 1098060.00000   72.60060  136.21359    7.21030    0.14310    1.71390    2.46680    1.68630    1.52460
 1098120.00000   72.65700  136.40700    7.24980    0.14790    1.74190    2.46920    1.78830    1.67830
 1098180.00000   71.96040  136.49471    7.32210    0.14880    1.73440    2.46990    1.84150    1.76420
 1098240.00000   72.24800  136.51280    7.11230    0.15290    1.81280    2.46100    1.79780    1.74450
 1098300.00000   73.13440  137.09300    7.02270    0.15630    1.82280    2.46100    1.71590    1.67900
 1098360.00000   73.82260  137.35590    6.76910    0.15360    1.87320    2.44970    1.64970    1.54000
 1098420.00000   73.43690  136.66991    6.51360    0.15780    1.82340    2.45180    1.63140    1.48040
 1098480.00000   72.71410  135.20050    6.90400    0.15120    1.78780    2.45270    1.63920    1.59160
 1098540.00000   70.97380  132.92490    7.25070    0.15140    1.84290    2.46430    1.71290    1.65620
 1098600.00000   68.39730  131.97520    8.79550    0.14700    1.93170    2.47900    1.78280    1.78610
 1098660.00000   67.36780  133.47220   11.75780    0.13880    2.05260    2.50650    1.93560    1.91240
 1098720.00000   70.03250  140.65540   14.68660    0.14120    2.12850    2.53220    2.10200    2.07320
 1098780.00000   69.97330  143.06140   13.97690    0.12370    2.43920    2.54980    2.22590    1.97010
 1098840.00000   68.02850  140.39230   10.23600    0.10030    2.58930    2.56090    3.03500    2.76990
 1098900.00000   65.50830  131.98730    7.03990    0.09590    2.89720    2.56650    3.94020    3.56870
 1098960.00000   62.57280  124.65060    6.65560    0.08620    3.19560    2.57560    4.28800    3.81340
 1099020.00000   62.31190  122.33190    7.29710    0.08070    3.57140    2.57800    4.60790    4.27390
 1099080.00000   63.23780  122.51700    8.26770    0.07670    3.85870    2.56780    4.87580    4.39200
 1099140.00000   63.10730  123.22040    8.84930    0.07870    3.99270    2.56050    4.87400    4.67640
 1099200.00000   63.78000  124.31130    9.02280    0.09040    4.13750    2.54900    4.54670    4.42970
 1099260.00000   64.86450  127.06510    9.90850    0.09070    4.16660    2.55710    3.84240    3.93990
 1099320.00000   66.92280  132.10291   11.40090    0.09600    4.14130    2.55430    3.67630    3.79590
 1099380.00000   68.13000  136.12601   12.90920    0.09580    4.28270    2.56150    3.28210    3.28340
 1099440.00000   69.79420  135.93941   12.26780    0.10530    4.21640    2.56180    3.29840    3.27830
 1099500.00000   68.87250  133.42430   10.77530    0.11370    4.32650    2.56730    3.35970    3.31140
 1099560.00000   65.75580  130.45360   10.32540    0.10440    4.17260    2.55900    3.58850    3.72420
 1099620.00000   65.16000  128.85490   10.26230    0.10420    4.21650    2.56110    3.66950    3.63340
 1099680.00000   66.86430  129.48129   11.82400    0.09980    4.26370    2.55480    3.65000    3.62990
 1099740.00000   65.74740  131.67751   13.12090    0.10420    4.44180    2.57120    3.74620    3.67470
 1099800.00000   63.35900  131.12070   13.62880    0.09010    4.52600    2.57820    4.04940    3.86640
 1099860.00000   60.92350  127.11960   10.91090    0.07380    4.68490    2.59400    4.37870    4.06150
 1099920.00000   60.02940  122.67730    8.13610    0.08050    4.84160    2.58390    5.87470    5.26700
 1099980.00000   59.76770  120.81590    6.62060    0.08360    4.96420    2.58230    6.18890    5.58800
 1100040.00000   60.29240  121.09580    6.66300    0.06600    5.15300    2.57400    6.38780    5.85240
 1100100.00000   60.39110  121.87270    6.55030    0.06510    5.32820    2.57960    6.99060    6.59620
 1100160.00000   61.07300  123.76890    6.88180    0.07300    5.31180    2.57540    7.32670    6.86080
 1100220.00000   62.73080  127.13740    9.06840    0.07020    5.28450    2.58440    6.97790    6.83350
 1100280.00000   64.49430  131.03920   11.90620    0.07150    5.28100    2.58960    6.35240    6.48220
 1100340.00000   65.61830  135.43240   14.72200    0.08350    5.07030    2.58880    5.28080    5.89550
 1100400.00000   66.38900  137.23430   15.81010    0.08690    4.94830    2.57610    4.38470    5.06450
 1100460.00000   66.56950  138.52620   15.76910    0.09360    4.90100    2.56640    4.20540    4.48930
 1100520.00000   66.37990  138.81480   15.00070    0.10100    4.60480    2.55440    4.08840    4.42640
 1100580.00000   65.92220  138.35091   13.98880    0.10560    4.46520    2.54180    3.65700    4.09760
 1100640.00000   67.07020  139.94200   13.74220    0.10700    4.35080    2.52760    3.33620    3.93180
 1100700.00000   67.60400  141.63060   14.25380    0.11780    4.14080    2.51890    3.03380    4.01010
 1100760.00000   68.42410  143.63420   14.50500    0.12650    4.05020    2.51780    2.90850    3.51750
 1100820.00000   68.68640  143.41960   14.88170    0.12920    3.98480    2.49580    2.77210    3.44170
 1100880.00000   68.63700  140.34470   14.27900    0.14380    3.93650    2.48470    2.67320    3.03220
 1100940.00000   68.18500  139.27190   14.31530    0.14490    3.63920    2.47690    2.54190    3.19120
 1101000.00000   68.51710  137.70650   13.77370    0.14120    3.56170    2.48720    2.46880    2.95320
 1101060.00000   72.15850  136.16071   13.27820    0.14210    3.43940    2.49660    2.52150    2.79790
 1101120.00000   73.19860  135.94920   12.54500    0.12870    3.32900    2.49970    2.66670    2.81020
 1101180.00000   72.20570  135.81020   11.93470    0.13220    3.22820    2.50280    2.81440    2.91440
 1101240.00000   70.17630  136.72279   11.90580    0.12470    3.13220    2.51490    2.81640    2.93080
 1101300.00000   66.77470  137.32420   12.45830    0.11380    2.98900    2.52650    2.81790    2.90180
 1101360.00000   66.89740  140.41570   13.00450    0.11540    2.97430    2.53360    2.74210    2.76720
 1101420.00000   66.87350  141.10330   13.49700    0.11920    2.99580    2.52780    2.73340    2.74960
 1101480.00000   67.57930  142.82430   14.81000    0.11540    2.99570    2.52760    2.81500    2.89800
 1101540.00000   68.43250  143.01920   14.98090    0.11480    2.86750    2.53000    2.88410    3.12290
