~Version ---------------------------------------------------
VERS.   2.0 : CWLS log ASCII Standard -VERSION 2.0
WRAP.    NO : One line per depth step
DLM . SPACE : Column Data Section Delimiter
~Well ------------------------------------------------------
STRT.0.1 in          78840.00000 : START DEPTH
STOP.0.1 in        1388160.00000 : STOP DEPTH
STEP.0.1 in             60.00000 : STEP
NULL.                    -999.25 : NULL VALUE
COMP.               STATOILHYDRO : COMPANY
WELL.                   15/9-F-4 : WELL
FLD .                      VOLVE : FIELD
LOC .                            : LOCATION
PROV.                            : PROVINCE
CNTY.                            : COUNTY
STAT.                            : STATE
CTRY.                            : COUNTRY
SRVC.    CROCKER DATA PROCESSING : SERVICE COMPANY
DATE. 2009-02-18 14:26:33.389000 : DATE
UWI .                            : UNIQUE WELL ID
API .                            : API NUMBER
~Curve Information -----------------------------------------
DEPTH.0.1 in       : 
DT   .us/ft        : 
DTS  .us/ft        : 
GR   .API          : 
NPHI .v/v_decimal  : 
RD   .UNKNOWN      : 
RHOB .g/cm3        : 
RS   .UNKNOWN      : 
RT   .ohm.m        : 
~Params ----------------------------------------------------
PROD   .                           PETROLOG : 
PROG   .               ['PETROLOG-TO-DLIS'] : 
RUN    .                                 [] : 
DESCENT.                                 [] : 
VERSION.                              10.00 : 
LINEAGE.         Python-converted from DLIS : 
ORFILE . WLC_PETRO_COMPUTED_INPUT_1(1).DLIS : 
~Other -----------------------------------------------------
~ASCII -----------------------------------------------------
# ...
 1176480.00000   69.86680  130.22540   20.74210    0.11230    6.33930    2.52810    5.49670    6.32730
 1176540.00000   67.92130  129.46490   24.78320    0.10680    6.98990    2.53380    4.45900    4.21970
 1176600.00000   65.74030  129.80721   26.54840    0.09870    6.41690    2.53470    4.13380    3.68210
 1176660.00000   64.90260  127.48350   24.33880    0.10240    5.87910    2.52660    5.52690    5.82900
 1176720.00000   63.67280  124.90190   22.19320    0.11040    5.42710    2.53030    5.88810    6.27530
 1176780.00000   63.19610  121.49480   20.50300    0.09840    5.65780    2.54940    5.28740    5.22800
 1176840.00000   62.35210  118.78180   17.85820    0.08860    6.02390    2.56320    5.86600    4.44690
 1176900.00000   61.83310  121.03240   14.80530    0.08020    5.93510    2.55070    5.86480    5.55890
 1176960.00000   60.64710  122.74520   12.52070    0.08160    5.69990    2.52430    6.16190    5.79850
 1177020.00000   62.52410  123.31780   13.52900    0.09170    5.61620    2.51970    5.92870    5.60020
 1177080.00000   62.97680  125.02300   15.71990    0.09000    5.60430    2.52850    5.91370    5.33800
 1177140.00000   65.34120  126.50910   18.04160    0.09090    5.55380    2.54690    5.67710    5.46720
 1177200.00000   68.38390  128.21429   20.88740    0.09510    5.54500    2.54440    5.27280    5.98520
 1177260.00000   68.95570  129.03380   24.49380    0.10320    5.49790    2.52980    5.17590    5.47930
 1177320.00000   67.14280  127.79810   26.89420    0.10420    5.90580    2.52180    4.50500    4.36040
 1177380.00000   65.29530  124.18590   27.28130    0.11630    5.59230    2.51100    4.79680    4.87970
 1177440.00000   62.80270  120.41050   24.67620    0.10550    5.42020    2.52720    5.09690    5.09480
 1177500.00000   62.45080  121.08240   22.04410    0.09370    5.30240    2.53090    4.95430    4.84020
 1177560.00000   62.76180  121.25590   19.15860    0.09660    5.43060    2.52890    5.95610    5.39710
 1177620.00000   62.22020  120.46450   15.73290    0.09240    5.19660    2.52450    6.29980    5.56950
 1177680.00000   61.92550  120.10020   13.02790    0.08600    5.04800    2.52720    6.12100    5.64880
 1177740.00000   62.78010  119.54260   11.30050    0.09300    5.08050    2.54060    5.82510    5.23190
 1177800.00000   65.53860  124.91950   12.91430    0.09520    5.22040    2.53510    5.51080    5.28680
 1177860.00000   69.79700  128.20520   15.05480    0.10760    5.18310    2.53340    4.93590    4.86210
 1177920.00000   73.71050  130.73241   18.71550    0.11790    4.85310    2.52180    4.35000    4.93720
 1177980.00000   76.73700  136.95551   24.44810    0.12770    4.68310    2.50990    3.06300    3.32870
 1178040.00000   76.97110  140.00101   33.38430    0.13720    4.78240    2.50170    2.98130    3.41590
 1178100.00000   72.48070  135.31760   39.56240    0.13640    4.74950    2.52410    2.97900    3.09310
 1178160.00000   65.42300  123.99400   40.21180    0.10860    4.99910    2.55500    2.95970    2.60240
 1178220.00000   58.27920  115.21880   32.90820    0.08100    5.64320    2.56390    4.93480    4.75560
 1178280.00000   55.72310  117.05540   24.18530    0.07980    4.93520    2.55790    6.60740    6.72300
 1178340.00000   58.17910  123.64870   16.60440    0.07570    5.27130    2.54440    7.14730    7.17960
 1178400.00000   63.12630  122.83580   14.82220    0.07820    5.52030    2.54480    6.94110    6.58350
 1178460.00000   67.05540  125.82230   16.96860    0.08580    5.66620    2.53800    6.22040    6.17690
 1178520.00000   69.00650  125.73320   20.10530    0.09720    5.92830    2.53780    5.16340    5.49720
 1178580.00000   68.52070  123.63890   25.40860    0.11380    5.99190    2.54120    4.75620    5.18540
 1178640.00000   65.59790  120.71440   28.89820    0.10890    6.32320    2.53270    4.14440    3.80590
 1178700.00000   62.06440  121.60430   27.71680    0.10230    6.13540    2.52930    4.36950    4.27960
 1178760.00000   61.88460  124.28490   22.52170    0.09860    5.57030    2.52260    5.13240    5.57410
 1178820.00000   62.62360  124.48280   18.11690    0.09640    5.63270    2.53150    5.34770    5.48410
 1178880.00000   63.49230  121.80530   18.00650    0.09370    5.72290    2.52950    5.49970    5.15280
 1178940.00000   63.08970  122.56010   19.23370    0.09430    5.71870    2.53620    5.67830    5.37140
 1179000.00000   62.41770  121.74180   20.53780    0.09040    5.63980    2.54690    5.79540    5.52910
 1179060.00000   62.32670  120.42350   21.12750    0.09790    5.61330    2.56120    6.18120    5.94380
 1179120.00000   61.95860  119.40350   19.94090    0.09220    5.58990    2.56190    6.35170    5.97990
 1179180.00000   62.89430  119.19500   18.84560    0.08910    5.58050    2.55270    6.35330    6.05980
 1179240.00000   64.50350  121.51590   17.97380    0.09390    5.49140    2.54850    6.06630    5.92680
 1179300.00000   66.70990  123.14940   19.14790    0.10100    5.37740    2.54340    5.81550    5.90350
 1179360.00000   67.44670  124.54250   20.42810    0.10580    5.15640    2.53600    5.40140    5.42840
 1179420.00000   66.51950  127.66580   20.76760    0.10950    5.50540    2.51580    4.83410    4.65620
 1179480.00000   66.21770  126.19410   21.45370    0.11110    5.29040    2.49350    4.80870    4.70720
 1179540.00000   68.41840  130.41071   21.33100    0.11050    5.19960    2.49240    4.77550    4.40160
 1179600.00000   72.21700  134.38510   22.09050    0.11540    4.98950    2.49260    4.45990    4.67980
 1179660.00000   74.19920  134.92790   23.82950    0.12340    4.83700    2.50810    4.35010    5.28910
 1179720.00000   71.88350  133.63310   27.98330    0.13300    4.85370    2.51410    3.58750    3.82910
 1179780.00000   67.50950  129.19930   33.60070    0.12410    5.22050    2.53820    3.02420    2.70980
 1179840.00000   63.03890  123.24440   32.24810    0.11400    5.19460    2.54620    3.34530    3.01520
 1179900.00000   60.47220  117.29510   26.48480    0.10390    4.97230    2.55630    4.23170    4.73330
 1179960.00000   59.82490  113.56170   19.00430    0.09440    5.14030    2.55470    4.92100    5.40530
 1180020.00000   60.26840  115.26940   15.61460    0.08340    5.36880    2.55890    5.30110    5.48560
 1180080.00000   61.24500  116.39290   14.46300    0.08590    5.53840    2.55090    5.74210    5.52660
 1180140.00000   62.17160  117.49070   14.24050    0.08610    5.72650    2.54790    6.06520    5.80730
 1180200.00000   62.09680  118.52170   15.80300    0.08680    5.98490    2.55190    6.18800    6.27810
 1180260.00000   61.20270  117.28810   17.38870    0.08480    6.13260    2.56090    6.39650    6.47030
 1180320.00000   60.74370  114.59470   19.47700    0.08360    6.26770    2.56530    6.65810    6.51930
 1180380.00000   60.89170  114.05980   20.51990    0.08260    6.38050    2.56350    7.10220    6.80990
 1180440.00000   61.53200  115.32680   20.13280    0.08280    6.52880    2.56120    7.18860    6.78000
 1180500.00000   62.13840  117.38330   19.44450    0.08400    6.50170    2.56150    7.24720    6.87060
 1180560.00000   62.32810  118.68430   19.26960    0.08510    6.43510    2.56320    7.35310    6.82630
 1180620.00000   63.18060  120.47940   19.99720    0.08250    6.51370    2.56950    7.21810    6.82920
 1180680.00000   63.45210  123.80210   21.34650    0.08260    6.42040    2.56580    7.14180    6.58880
 1180740.00000   64.54370  126.38590   22.91360    0.08650    6.25070    2.55780    6.70180    6.43660
 1180800.00000   66.21840  128.12660   23.87350    0.09210    6.31450    2.53580    6.11910    5.82710
 1180860.00000   68.69620  130.07890   24.47410    0.09540    6.06700    2.52260    5.39730    5.25610
 1180920.00000   70.69740  131.90570   25.41790    0.10480    5.81260    2.51990    5.01560    4.77220
 1180980.00000   71.11420  131.61481   27.41410    0.10750    5.75320    2.52900    4.43010    4.58110
 1181040.00000   69.11860  130.49541   30.22740    0.11680    5.56530    2.53710    4.02990    4.50000
 1181100.00000   65.19590  128.30530   32.88790    0.10890    5.48990    2.54220    3.65270    3.69020
